"iata_code","ident","name","type","municipality","iso_country","latitude_deg","longitude_deg"
"WKK","5A8","Aleknagik / New Airport","medium_airport","Aleknagik","US","59.2826004028","-158.617996216"
"BBQ","AG-0001","Burton-Nibbs International Airport","medium_airport","Codrington","AG","17.621194","-61.798347"
"HIR","AGGH","Honiara International Airport","large_airport","Honiara","SB","-9.428","160.054993"
"MUA","AGGM","Munda Airport","medium_airport","Munda","SB","-8.32797","157.263"
"INU","ANYN","Nauru International Airport","medium_airport","Yaren","NR","-0.547893","166.919525"
"AXF","AXF","Alxa Left Banner Bayanhot Airport","medium_airport","Bayanhot","CN","38.748317","105.58416"
"VMU","AYBA","Baimuru Airport","medium_airport","Baimuru","PG","-7.496955","144.821756"
"BUA","AYBK","Buka Airport","medium_airport","Buka Island","PG","-5.422299","154.672698"
"OPU","AYBM","Balimo Airport","medium_airport","Balimo","PG","-8.05000019073","142.932998657"
"CMU","AYCH","Chimbu Airport","medium_airport","Kundiawa","PG","-6.024290084838867","144.9709930419922"
"DAU","AYDU","Daru Airport","medium_airport","Daru","PG","-9.08676","143.207993"
"GKA","AYGA","Goroka Airport","medium_airport","Goronka","PG","-6.081689834590001","145.391998291"
"GUR","AYGN","Gurney Airport","medium_airport","Gurney","PG","-10.3114995956","150.333999634"
"PNP","AYGR","Girua Airport","medium_airport","Popondetta","PG","-8.80453968048","148.309005737"
"HKN","AYHK","Hoskins Airport","medium_airport","Kimbe","PG","-5.463846","150.407327"
"KMA","AYKM","Kerema Airport","medium_airport","Kerema","PG","-7.96361017227","145.770996094"
"KVG","AYKV","Kavieng Airport","medium_airport","Kavieng","PG","-2.57940006256","150.807998657"
"MAG","AYMD","Madang Airport","medium_airport","Madang","PG","-5.20707988739","145.789001465"
"HGU","AYMH","Mount Hagen Kagamuga Airport","medium_airport","Mount Hagen","PG","-5.828212","144.299412"
"MDU","AYMN","Mendi Airport","medium_airport","Mendi","PG","-6.14774","143.656998"
"MAS","AYMO","Momote Airport","medium_airport","Manus Island","PG","-2.06189","147.423996"
"LAE","AYNZ","Nadzab Tomodachi International Airport","large_airport","Lae","PG","-6.567995","146.726544"
"POM","AYPY","Port Moresby Jacksons International Airport","large_airport","Port Moresby","PG","-9.443380355834961","147.22000122070312"
"RAB","AYTK","Tokua Airport","medium_airport","Kokopo","PG","-4.34046","152.380005"
"VAI","AYVN","Vanimo Airport","medium_airport","Vanimo","PG","-2.6926","141.3028"
"WBM","AYWD","Wapenamanda Airport","medium_airport","Wapenamanda","PG","-5.635293","143.892231"
"WWK","AYWK","Wewak International Airport","medium_airport","Wewak","PG","-3.58383011818","143.669006348"
"JEG","BGAA","Aasiaat Airport","medium_airport","Aasiaat","GL","68.721802","-52.784698"
"CNP","BGCO","Neerlerit Inaat Airport","medium_airport","Neerlerit Inaat","GL","70.743103","-22.650499"
"GOH","BGGH","Nuuk International Airport","large_airport","Nuuk","GL","64.191066","-51.67914"
"JAV","BGJN","Ilulissat Airport","medium_airport","Ilulissat","GL","69.243202","-51.057098"
"KUS","BGKK","Kulusuk Airport","medium_airport","Kulusuk","GL","65.573601","-37.1236"
"NAQ","BGQQ","Qaanaaq Airport","medium_airport","Qaanaaq","GL","77.488602","-69.388702"
"SFJ","BGSF","Kangerlussuaq International Airport","medium_airport","Kangerlussuaq","GL","67.010446","-50.715294"
"JHS","BGSS","Sisimiut Airport","medium_airport","Sisimiut","GL","66.951302","-53.729301"
"THU","BGTL","Pituffik Space Base","medium_airport","Pituffik","GL","76.53063","-68.700541"
"AEY","BIAR","Akureyri International Airport","large_airport","Akureyri","IS","65.656573","-18.072018"
"EGS","BIEG","Egilsstaðir Airport","medium_airport","Egilsstaðir","IS","65.2833023071289","-14.401399612426758"
"GRY","BIGR","Grímsey Airport","medium_airport","Grímsey/Sandvík","IS","66.5458","-18.0173"
"HFN","BIHN","Hornafjörður Airport","medium_airport","Höfn","IS","64.295601","-15.2272"
"IFJ","BIIS","Ísafjörður Airport","medium_airport","Ísafjörður","IS","66.058098","-23.1353"
"KEF","BIKF","Keflavik International Airport","large_airport","Reykjavík","IS","63.985001","-22.6056"
"RKV","BIRK","Reykjavík Domestic Airport","medium_airport","Reykjavík","IS","64.128732","-21.93759"
"VPN","BIVO","Vopnafjörður Airport","medium_airport","Vopnafjörður","IS","65.720596","-14.8506"
"PRN","BKPR","Priština Adem Jashari International Airport","large_airport","Prishtina","XK","42.5728","21.035801"
"VDC","BR-0569","Glauber de Andrade Rocha Airport","medium_airport","Vitória da Conquista","BR","-14.907885","-40.914804"
"CUK","BZ-CUK","Caye Caulker Airport","medium_airport","Caye Caulker","BZ","17.735015","-88.032862"
"CYC","BZ-CYC","Caye Chapel Airport","medium_airport","Caye Chapel","BZ","17.683792","-88.044985"
"CZH","BZ-CZH","Corozal Airport","medium_airport","Corozal","BZ","18.3822","-88.411903"
"DGA","BZ-DGA","Dangriga Airport","medium_airport","Dangriga","BZ","16.98251","-88.230988"
"SPR","BZ-SPR","John Greif II Airport","medium_airport","San Pedro","BZ","17.9139","-87.9711"
"TZA","BZ-TZA","Sir Barry Bowen Municipal Airport","medium_airport","Belize City","BZ","17.517239","-88.195775"
"YAA","CAJ4","Anahim Lake Airport","medium_airport","Anahim Lake","CA","52.451501","-125.303776"
"XQU","CAT4","Qualicum Beach Airport","medium_airport","Qualicum Beach","CA","49.337456","-124.393086"
"ZEL","CBBC","Bella Bella (Campbell Island) Airport","medium_airport","Bella Bella","CA","52.185001","-128.156994"
"BZX","CN-0062","Bazhong Enyang Airport","medium_airport","Bazhong","CN","31.73842","106.644872"
"HSC","CN-0079","Shaoguan Danxia Airport","medium_airport","Shaoguan","CN","24.9786","113.420998"
"JGS","CN-0081","Jinggangshan Airport","medium_airport","Ji'an","CN","26.856899","114.737"
"JNH","CN-0154","Jiaxing Nanhu Airport","medium_airport","Xiuzhou, Hangzhou","CN","30.698056","120.663056"
"DDR","CN-0236","Shigatse Tingri Airport","medium_airport","Xigazê (Dingri)","CN","28.604567","86.798"
"HQL","CN-0237","Tashikuergan Hongqilafu Airport","medium_airport","Tashikuergan","CN","37.661333","75.288877"
"BFY","CN-0476","Bengbu Tenghu Airport","medium_airport","Bengbu","CN","33.166292","117.058344"
"YAG","CYAG","Fort Frances Municipal Airport","medium_airport","Fort Frances","CA","48.655749","-93.44349"
"YAM","CYAM","Sault Ste Marie Airport","medium_airport","Sault Ste Marie","CA","46.483216","-84.508467"
"XKS","CYAQ","Kasabonika Airport","medium_airport","Kasabonika","CA","53.52470016479492","-88.6427993774414"
"YAY","CYAY","St. Anthony Airport","medium_airport","St. Anthony","CA","51.391909","-56.08321"
"YAZ","CYAZ","Tofino / Long Beach Airport","medium_airport","Tofino","CA","49.079833","-125.775583"
"YBC","CYBC","Baie-Comeau Airport","medium_airport","Baie-Comeau","CA","49.1325","-68.204399"
"QBC","CYBD","Bella Coola Airport","medium_airport","Bella Coola","CA","52.387501","-126.596001"
"YBY","CYBF","Bonnyville Airport","medium_airport","Bonnyville","CA","54.304199","-110.744003"
"YBG","CYBG","Saguenay-Bagotville Airport","medium_airport","Saguenay","CA","48.330123","-70.992012"
"YBK","CYBK","Baker Lake Airport","medium_airport","Baker Lake","CA","64.29889678960001","-96.077796936"
"YBL","CYBL","Campbell River Airport","medium_airport","Campbell River","CA","49.950802","-125.271004"
"YBR","CYBR","Brandon Municipal Airport","medium_airport","Brandon","CA","49.91","-99.951897"
"YBX","CYBX","Lourdes-de-Blanc-Sablon Airport","medium_airport","Blanc-Sablon","CA","51.4436","-57.185299"
"YCB","CYCB","Cambridge Bay Airport","medium_airport","Cambridge Bay","CA","69.1081008911","-105.138000488"
"YCD","CYCD","Nanaimo Airport","medium_airport","Nanaimo","CA","49.05497","-123.869863"
"YCG","CYCG","Castlegar/West Kootenay Regional Airport","medium_airport","Castlegar","CA","49.296398","-117.632004"
"YCL","CYCL","Charlo Airport","medium_airport","Charlo","CA","47.990799","-66.330299"
"YDA","CYDA","Dawson City Airport","medium_airport","Dawson City","CA","64.04309844970703","-139.1280059814453"
"YDF","CYDF","Deer Lake Airport","medium_airport","Deer Lake","CA","49.208159","-57.396147"
"YDN","CYDN","Dauphin Barker Airport","medium_airport","Dauphin","CA","51.1008","-100.052002"
"YEG","CYEG","Edmonton International Airport","large_airport","Edmonton","CA","53.3097","-113.580002"
"YEV","CYEV","Inuvik Mike Zubko Airport","medium_airport","Inuvik","CA","68.30419921880001","-133.483001709"
"YFB","CYFB","Iqaluit Airport","medium_airport","Iqaluit","CA","63.756402","-68.555801"
"YFC","CYFC","Fredericton International Airport","medium_airport","Fredericton","CA","45.868697","-66.529891"
"YFS","CYFS","Fort Simpson Airport","medium_airport","Fort Simpson","CA","61.76020050048828","-121.23699951171875"
"YGL","CYGL","La Grande Rivière Airport","medium_airport","La Grande Rivière","CA","53.625301361083984","-77.7042007446289"
"YGP","CYGP","Michel-Pouliot Gaspé Airport","medium_airport","Gaspé","CA","48.774915","-64.481893"
"YGR","CYGR","Îles-de-la-Madeleine Airport","medium_airport","Les Îles-de-la-Madeleine","CA","47.425242","-61.778612"
"YGV","CYGV","Havre-Saint-Pierre Airport","medium_airport","Havre-Saint-Pierre","CA","50.281898","-63.611401"
"YGW","CYGW","Kuujjuarapik Airport","medium_airport","Kuujjuarapik","CA","55.281898498535156","-77.76529693603516"
"YHM","CYHM","John C. Munro Hamilton International Airport","medium_airport","Hamilton","CA","43.17348","-79.931185"
"YHU","CYHU","Montréal / Saint-Hubert Metropolitan Airport","medium_airport","Montréal","CA","45.517502","-73.416901"
"YHY","CYHY","Hay River / Merlyn Carter Airport","medium_airport","Hay River","CA","60.8396987915","-115.782997131"
"YHZ","CYHZ","Halifax / Stanfield International Airport","large_airport","Halifax","CA","44.8807983398","-63.5085983276"
"YIF","CYIF","St Augustin Airport","medium_airport","St-Augustin","CA","51.2117","-58.658298"
"YIV","CYIV","Island Lake Airport","medium_airport","Island Lake","CA","53.857200622558594","-94.65360260009766"
"YJT","CYJT","Stephenville Dymond International Airport","medium_airport","Stephenville","CA","48.54339","-58.552892"
"YKA","CYKA","Kamloops John Moose Fulton Field Regional Airport","medium_airport","Kamloops","CA","50.703038","-120.448641"
"YKF","CYKF","Region of Waterloo International Airport","medium_airport","Breslau","CA","43.4608","-80.378601"
"YKL","CYKL","Schefferville Airport","medium_airport","Schefferville","CA","54.805301666259766","-66.8052978515625"
"YLL","CYLL","Lloydminster Airport","medium_airport","Lloydminster","CA","53.3092","-110.072998"
"YLK","CYLS","Barrie-Lake Simcoe Regional Airport","medium_airport","Barrie","CA","44.485056","-79.554663"
"YLW","CYLW","Kelowna International Airport","large_airport","Kelowna","CA","49.9561","-119.377998"
"YMM","CYMM","Fort McMurray International Airport","medium_airport","Fort McMurray","CA","56.653301","-111.222"
"YMO","CYMO","Moosonee Airport","medium_airport","Moosonee","CA","51.291099548339844","-80.60780334472656"
"YMT","CYMT","Chapais Airport","medium_airport","Chibougamau","CA","49.77190017700195","-74.5280990600586"
"YMX","CYMX","Montreal Mirabel International Airport","medium_airport","Montréal","CA","45.679501","-74.038696"
"YNA","CYNA","Natashquan Airport","medium_airport","Natashquan","CA","50.190114","-61.78898"
"YND","CYND","Ottawa / Gatineau Airport","medium_airport","Gatineau","CA","45.521702","-75.563599"
"YNL","CYNL","Points North Landing Airport","medium_airport","Points North Landing","CA","58.27669906616211","-104.08200073242188"
"YOJ","CYOJ","High Level Airport","medium_airport","High Level","CA","58.62139892578125","-117.16500091552734"
"YOW","CYOW","Ottawa Macdonald-Cartier International Airport","large_airport","Ottawa","CA","45.322498","-75.669197"
"YPA","CYPA","Prince Albert Glass Field","medium_airport","Prince Albert","CA","53.214199066199996","-105.672996521"
"YPE","CYPE","Peace River Airport","medium_airport","Peace River","CA","56.226898","-117.446999"
"YPL","CYPL","Pickle Lake Airport","medium_airport","Pickle Lake","CA","51.4463996887207","-90.21420288085938"
"YPN","CYPN","Port-Menier Airport","medium_airport","Port-Menier","CA","49.836399","-64.288597"
"YPQ","CYPQ","Peterborough Regional Airport","medium_airport","Peterborough","CA","44.232251","-78.362053"
"YPR","CYPR","Prince Rupert Airport","medium_airport","Prince Rupert","CA","54.286098480199996","-130.445007324"
"YPW","CYPW","Powell River Airport","medium_airport","Powell River","CA","49.83420181274414","-124.5"
"YPX","CYPX","Puvirnituq Airport","medium_airport","Puvirnituq","CA","60.050598","-77.286903"
"YPY","CYPY","Fort Chipewyan Airport","medium_airport","Fort Chipewyan","CA","58.7672004699707","-111.11699676513672"
"YPZ","CYPZ","Burns Lake Airport","medium_airport","Burns Lake","CA","54.3764","-125.950996"
"YQA","CYQA","Muskoka Airport","medium_airport","Gravenhurst","CA","44.975376","-79.306546"
"YQB","CYQB","Quebec Jean Lesage International Airport","large_airport","Quebec","CA","46.7911","-71.393303"
"YQD","CYQD","The Pas Airport","medium_airport","The Pas","CA","53.97140121459961","-101.09100341796875"
"YQG","CYQG","Windsor International Airport","medium_airport","Windsor","CA","42.2756","-82.955597"
"YQH","CYQH","Watson Lake Airport","medium_airport","Watson Lake","CA","60.116839","-128.821993"
"YQK","CYQK","Kenora Airport","medium_airport","Kenora","CA","49.788299560546875","-94.36309814453125"
"YQL","CYQL","Lethbridge County Airport","medium_airport","Lethbridge","CA","49.6302986145","-112.800003052"
"YQM","CYQM","Greater Moncton Roméo LeBlanc International Airport","medium_airport","Moncton","CA","46.113189","-64.67719"
"YQN","CYQN","Nakina Airport","medium_airport","Nakina","CA","50.18280029296875","-86.69640350341797"
"YQQ","CYQQ","Comox Valley International Airport / CFB Comox","medium_airport","Comox","CA","49.7108","-124.887001"
"YQR","CYQR","Regina International Airport","medium_airport","Regina","CA","50.431938","-104.660906"
"YQT","CYQT","Thunder Bay International Airport","medium_airport","Thunder Bay","CA","48.371899","-89.323898"
"YQU","CYQU","Grande Prairie Airport","medium_airport","Grande Prairie","CA","55.1796989441","-118.885002136"
"YQX","CYQX","Gander International Airport","medium_airport","Gander","CA","48.936258","-54.567719"
"YQY","CYQY","Sydney / J.A. Douglas McCurdy Airport","medium_airport","Sydney","CA","46.161072","-60.049759"
"YQZ","CYQZ","Quesnel Airport","medium_airport","Quesnel","CA","53.026100158691406","-122.51000213623047"
"YRB","CYRB","Resolute Bay Airport","medium_airport","Resolute Bay","CA","74.7169036865","-94.9693984985"
"YRJ","CYRJ","Roberval Airport","medium_airport","Roberval","CA","48.519665","-72.265735"
"YRL","CYRL","Red Lake Airport","medium_airport","Red Lake","CA","51.066898345947266","-93.79309844970703"
"YRO","CYRO","Ottawa / Rockcliffe Airport","medium_airport","Ottawa","CA","45.460496","-75.644001"
"YRT","CYRT","Rankin Inlet Airport","medium_airport","Rankin Inlet","CA","62.8114013672","-92.1157989502"
"YSB","CYSB","Sudbury Airport","medium_airport","Sudbury","CA","46.625","-80.79889678955078"
"YSF","CYSF","Stony Rapids Airport","medium_airport","Stony Rapids","CA","59.250301361083984","-105.84100341796875"
"YSJ","CYSJ","Saint John Airport","medium_airport","Saint John","CA","45.31610107421875","-65.89029693603516"
"YSL","CYSL","Saint-Léonard Airport","medium_airport","Saint-Léonard","CA","47.157097","-67.836242"
"YSM","CYSM","Fort Smith Airport","medium_airport","Fort Smith","CA","60.020302","-111.961998"
"YCM","CYSN","Niagara District Airport","medium_airport","Niagara-on-the-Lake","CA","43.191598","-79.171686"
"YTH","CYTH","Thompson Airport","medium_airport","Thompson","CA","55.80110168457031","-97.86419677734375"
"YTS","CYTS","Timmins/Victor M. Power","medium_airport","Timmins","CA","48.569698333699996","-81.376701355"
"YTZ","CYTZ","Billy Bishop Toronto City Airport","medium_airport","Toronto","CA","43.627852","-79.39553"
"YUL","CYUL","Montreal / Pierre Elliott Trudeau International Airport","large_airport","Montréal","CA","45.467837","-73.742294"
"YUX","CYUX","Hall Beach Airport","medium_airport","Sanirajak","CA","68.7761","-81.2425"
"YUY","CYUY","Rouyn Noranda Airport","medium_airport","Rouyn-Noranda","CA","48.20610046386719","-78.83560180664062"
"YVB","CYVB","Bonaventure Airport","medium_airport","Bonaventure","CA","48.071098","-65.460297"
"YVC","CYVC","La Ronge Airport","medium_airport","La Ronge","CA","55.151401519800004","-105.262001038"
"YVO","CYVO","Val-d'Or Airport","medium_airport","Val-d'Or","CA","48.0532989502","-77.7827987671"
"YVP","CYVP","Kuujjuaq Airport","medium_airport","Kuujjuaq","CA","58.096099853515625","-68.4269027709961"
"YVQ","CYVQ","Norman Wells Airport","medium_airport","Norman Wells","CA","65.28160095214844","-126.7979965209961"
"YVR","CYVR","Vancouver International Airport","large_airport","Vancouver","CA","49.193901","-123.183998"
"YVV","CYVV","Wiarton Airport","medium_airport","Wiarton","CA","44.7458","-81.107201"
"YWG","CYWG","Winnipeg / James Armstrong Richardson International Airport","large_airport","Winnipeg","CA","49.909999847399995","-97.2398986816"
"YWK","CYWK","Wabush Airport","medium_airport","Wabush","CA","52.92190170288086","-66.8644027709961"
"YWL","CYWL","Williams Lake Airport","medium_airport","Williams Lake","CA","52.1831016541","-122.054000854"
"YXC","CYXC","Cranbrook/Canadian Rockies International Airport","medium_airport","Cranbrook","CA","49.610802","-115.781998"
"YXE","CYXE","Saskatoon John G. Diefenbaker International Airport","large_airport","Saskatoon","CA","52.170723","-106.700793"
"YXH","CYXH","Medicine Hat Regional Airport","medium_airport","Medicine Hat","CA","50.018902","-110.721001"
"YXJ","CYXJ","Fort St John / North Peace Regional Airport","medium_airport","Fort Saint John","CA","56.238098","-120.739998"
"YXK","CYXK","Rimouski Airport","medium_airport","Rimouski","CA","48.477644","-68.496323"
"YXL","CYXL","Sioux Lookout Airport","medium_airport","Sioux Lookout","CA","50.11389923095703","-91.9052963256836"
"YXS","CYXS","Prince George (International) Airport","medium_airport","Prince George","CA","53.884311","-122.666554"
"YXT","CYXT","Northwest Regional Airport Terrace-Kitimat","medium_airport","Terrace","CA","54.468498","-128.576009"
"YXU","CYXU","London International Airport","medium_airport","London","CA","43.032845","-81.149003"
"YXX","CYXX","Abbotsford International Airport","medium_airport","Abbotsford","CA","49.025299","-122.361"
"YXY","CYXY","Whitehorse / Erik Nielsen International Airport","medium_airport","Whitehorse","CA","60.708533","-135.065705"
"YYB","CYYB","North Bay Jack Garland Airport","medium_airport","North Bay","CA","46.363602","-79.422798"
"YYC","CYYC","Calgary International Airport","large_airport","Calgary","CA","51.118822","-114.009933"
"YYD","CYYD","Smithers Airport","medium_airport","Smithers","CA","54.82469940185547","-127.18299865722656"
"YYE","CYYE","Fort Nelson Airport","medium_airport","Fort Nelson","CA","58.8363990784","-122.597000122"
"YYF","CYYF","Penticton Airport","medium_airport","Penticton","CA","49.46310043334961","-119.60199737548828"
"YYG","CYYG","Charlottetown Airport","medium_airport","Charlottetown","CA","46.288911","-63.125174"
"YYJ","CYYJ","Victoria International Airport","large_airport","Victoria","CA","48.647201","-123.427792"
"YYL","CYYL","Lynn Lake Airport","medium_airport","Lynn Lake","CA","56.86389923095703","-101.07599639892578"
"YYQ","CYYQ","Churchill Airport","medium_airport","Churchill","CA","58.739200592041016","-94.06500244140625"
"YYR","CYYR","Goose Bay Airport","medium_airport","Goose Bay","CA","53.3191986084","-60.4258003235"
"YYT","CYYT","St. John's International Airport","large_airport","St. John's","CA","47.618599","-52.7519"
"YYY","CYYY","Mont Joli Airport","medium_airport","Mont-Joli","CA","48.60860061645508","-68.20809936523438"
"YYZ","CYYZ","Toronto Pearson International Airport","large_airport","Toronto","CA","43.675935","-79.629421"
"YZF","CYZF","Yellowknife International Airport","medium_airport","Yellowknife","CA","62.462799","-114.440002"
"YZP","CYZP","Sandspit Airport","medium_airport","Sandspit","CA","53.25429916379999","-131.813995361"
"YZS","CYZS","Coral Harbour Airport","medium_airport","Coral Harbour","CA","64.1932983398","-83.3593978882"
"YZT","CYZT","Port Hardy Airport","medium_airport","Port Hardy","CA","50.680599212646484","-127.36699676513672"
"YZU","CYZU","Whitecourt Airport","medium_airport","Whitecourt","CA","54.143902","-115.787003"
"YZV","CYZV","Sept-Îles Airport","medium_airport","Sept-Îles","CA","50.22330093383789","-66.2656021118164"
"ZBF","CZBF","Bathurst Airport","medium_airport","South Tetagouche","CA","47.6297","-65.738899"
"ZMT","CZMT","Masset Airport","medium_airport","Masset","CA","54.0275","-132.125"
"ZSJ","CZSJ","Sandy Lake Airport","medium_airport","Sandy Lake","CA","53.06420135498047","-93.34439849853516"
"BJA","DAAE","Soummam–Abane Ramdane Airport","large_airport","Béjaïa","DZ","36.712547","5.069909"
"ALG","DAAG","Houari Boumediene Airport","large_airport","Algiers","DZ","36.693886","3.214531"
"DJG","DAAJ","Tiska Djanet Airport","large_airport","Djanet","DZ","24.285448","9.463652"
"VVZ","DAAP","Illizi Takhamalt Airport","medium_airport","Illizi","DZ","26.723499","8.62265"
"QSF","DAAS","Ain Arnat Airport","medium_airport","Sétif","DZ","36.178488","5.329909"
"TMR","DAAT","Aguenar – Hadj Bey Akhamok Airport","large_airport","Tamanrasset","DZ","22.810992","5.450832"
"GJL","DAAV","Jijel Ferhat Abbas Airport","large_airport","Tahir","DZ","36.794125","5.873652"
"AAE","DABB","Annaba Rabah Bitat Airport","large_airport","Annaba","DZ","36.826781","7.81334"
"CZL","DABC","Mohamed Boudiaf International Airport","large_airport","Constantine","DZ","36.276001","6.62039"
"TEE","DABS","Cheikh Larbi Tébessi Airport","medium_airport","Tébessi","DZ","35.4315986633","8.12071990967"
"BLJ","DABT","Batna Mostefa Ben Boulaid Airport","large_airport","Batna","DZ","35.752102","6.30859"
"TIN","DAOF","Tindouf Airport","medium_airport","Tindouf","DZ","27.7003993988","-8.167099952700001"
"CFK","DAOI","Chlef Aboubakr Belkaid International Airport","large_airport","Chlef","DZ","36.216614","1.341114"
"TLM","DAON","Zenata – Messali El Hadj Airport","large_airport","Zenata","DZ","35.012732","-1.457117"
"ORN","DAOO","Oran Es-Sénia (Ahmed Ben Bella) International Airport","large_airport","Es-Sénia","DZ","35.620648","-0.622486"
"CBH","DAOR","Béchar Boudghene Ben Ali Lotfi Airport","medium_airport","Béchar","DZ","31.645700454711914","-2.269860029220581"
"BMW","DATM","Bordj Badji Mokhtar Airport","medium_airport","Bordj Badji Mokhtar","DZ","21.3778","0.92698"
"AZR","DAUA","Touat-Cheikh Sidi Mohamed Belkebir Airport","medium_airport","Adrar","DZ","27.837601","-0.186414"
"BSK","DAUB","Biskra - Mohamed Khider Airport","large_airport","Biskra","DZ","34.79318","5.738899"
"ELG","DAUE","El Golea Airport","medium_airport","El Menia","DZ","30.580732","2.861595"
"GHA","DAUG","Noumérat - Moufdi Zakaria Airport","medium_airport","El Atteuf","DZ","32.384102","3.79411"
"HME","DAUH","Hassi Messaoud-Oued Irara Krim Belkacem Airport","medium_airport","Hassi Messaoud","DZ","31.673","6.14044"
"INZ","DAUI","In Salah Airport","medium_airport","In Salah","DZ","27.250999","2.51202"
"TGR","DAUK","Touggourt Sidi Madhi Airport","medium_airport","Touggourt","DZ","33.067799","6.08867"
"ELU","DAUO","Guemar Airport - مطار قمار بالوادي","medium_airport","Guemar","DZ","33.511398","6.77679"
"TMX","DAUT","Timimoun Airport","medium_airport","Timimoun","DZ","29.237101","0.276033"
"OGX","DAUU","Ain Beida Airport","medium_airport","Ouargla","DZ","31.9172","5.41278"
"IAM","DAUZ","Zarzaitine - In Aménas Airport","medium_airport","In Aménas","DZ","28.0515","9.64291"
"COO","DBBB","Cotonou Cadjehoun International Airport","large_airport","Cotonou","BJ","6.35723","2.38435"
"OUA","DFFD","Ouagadougou Thomas Sankara International Airport","large_airport","Ouagadougou","BF","12.3532","-1.51242"
"BOY","DFOO","Bobo Dioulasso Airport","large_airport","Bobo Dioulasso","BF","11.1601","-4.33097"
"ACC","DGAA","Kotoka International Airport","large_airport","Accra","GH","5.605189800262451","-0.16678600013256073"
"TML","DGLE","Yakubu Tali International Airport","large_airport","Tamale","GH","9.553909","-0.86606"
"KMS","DGSI","Prempeh I International Airport","large_airport","Kumasi","GH","6.71456","-1.59082"
"NYI","DGSN","Sunyani Airport","medium_airport","Sunyani","GH","7.36183","-2.32876"
"TKD","DGTK","Takoradi Airport","medium_airport","Sekondi-Takoradi","GH","4.896059989929199","-1.7747600078582764"
"ABJ","DIAP","Félix-Houphouët-Boigny International Airport","large_airport","Abidjan","CI","5.26139","-3.92629"
"BYK","DIBK","Bouaké Airport","medium_airport","Bouaké","CI","7.7388","-5.07367"
"HGO","DIKO","Korhogo Airport","medium_airport","Korhogo","CI","9.38718","-5.55666"
"SPY","DISP","San Pedro Airport","medium_airport","","CI","4.74672","-6.66082"
"DKA","DN57","Umaru Musa Yar'adua Airport","medium_airport","Katsina","NG","13.0078","7.66045"
"ABV","DNAA","Nnamdi Azikiwe International Airport","large_airport","Abuja","NG","9.00679","7.26317"
"QUO","DNAI","Akwa Ibom International Airport","medium_airport","Uyo","NG","4.8725","8.093"
"AKR","DNAK","Akure Airport","medium_airport","Akure","NG","7.246739864349365","5.3010101318359375"
"ABB","DNAS","Asaba International Airport","large_airport","Asaba","NG","6.204167","6.665278"
"BCU","DNBC","Sir Abubakar Tafawa Balewa Bauchi State International Airport","large_airport","Bauchi","NG","10.482833","9.744"
"BNI","DNBE","Benin Airport","medium_airport","Benin","NG","6.316979885101318","5.5995001792907715"
"CBQ","DNCA","Margaret Ekpo International Airport","medium_airport","Calabar","NG","4.976019859313965","8.347200393676758"
"ENU","DNEN","Akanu Ibiam International Airport","large_airport","Enegu","NG","6.473718","7.560463"
"GMO","DNGO","Gombe Lawanti International Airport","medium_airport","Gombe","NG","10.298889","10.9"
"IBA","DNIB","Ibadan Airport","medium_airport","Ibadan","NG","7.362460136413574","3.97832989692688"
"ILR","DNIL","General Tunde Idiagbon International Airport","large_airport","Ilorin/Ogbomosho","NG","8.44021","4.49392"
"QOW","DNIM","Sam Mbakwe International Cargo Airport","medium_airport","Owerri","NG","5.42706","7.20603"
"JOS","DNJO","Yakubu Gowon Airport","medium_airport","Jos","NG","9.639829635620117","8.869050025939941"
"KAD","DNKA","Kaduna International Airport","large_airport","Kaduna","NG","10.696","7.32011"
"KAN","DNKN","Mallam Aminu Kano International Airport","large_airport","Kano","NG","12.045613","8.523566"
"MIU","DNMA","Maiduguri International Airport","large_airport","Maiduguri","NG","11.854163","13.080702"
"MDI","DNMK","Makurdi Airport","medium_airport","Makurdi","NG","7.70388","8.61394"
"LOS","DNMM","Murtala Muhammed International Airport","large_airport","Lagos","NG","6.57737","3.32116"
"PHC","DNPO","Port Harcourt International Airport","large_airport","Port Harcourt","NG","5.01549","6.94959"
"SKO","DNSO","Sadiq Abubakar III International Airport","large_airport","Sokoto","NG","12.915729","5.207547"
"QRW","DNSU","Warri Airport","medium_airport","Okpe","NG","5.59821","5.8187"
"YOL","DNYO","Yola Airport","medium_airport","Yola","NG","9.257550239562988","12.430399894714355"
"NIM","DRRN","Diori Hamani International Airport","large_airport","Niamey","NE","13.4815","2.18361"
"ZND","DRZR","Zinder Airport","medium_airport","Zinder","NE","13.779000282287598","8.983759880065918"
"TBJ","DTKA","Tabarka-Aïn Draham International Airport","medium_airport","Tabarka","TN","36.98","8.87694"
"MIR","DTMB","Monastir Habib Bourguiba International Airport","medium_airport","Monastir","TN","35.75809860229492","10.75469970703125"
"NBE","DTNH","Enfidha - Hammamet International Airport","medium_airport","Enfidha","TN","36.075833","10.438611"
"TUN","DTTA","Tunis Carthage International Airport","large_airport","Tunis","TN","36.851002","10.2272"
"GAF","DTTF","Gafsa Ksar International Airport","medium_airport","Gafsa","TN","34.422000885009766","8.822500228881836"
"GAE","DTTG","Gabès Matmata International Airport","medium_airport","Gabès","TN","33.733691","9.91941"
"DJE","DTTJ","Djerba Zarzis International Airport","large_airport","Mellita","TN","33.873719","10.7773"
"SFA","DTTX","Sfax Thyna International Airport","medium_airport","Sfax","TN","34.717999","10.691"
"TOE","DTTZ","Tozeur Nefta International Airport","medium_airport","Tozeur","TN","33.939701080322266","8.110560417175293"
"LFW","DXXX","Lomé–Tokoin International Airport","large_airport","Lomé","TG","6.16561","1.25451"
"ANR","EBAW","Antwerp International Airport (Deurne)","medium_airport","Antwerp","BE","51.190667","4.463153"
"BRU","EBBR","Brussels Airport","large_airport","Zaventem","BE","50.901402","4.48444"
"CRL","EBCI","Brussels South Charleroi Airport","large_airport","Charleroi","BE","50.461963","4.459562"
"LGG","EBLG","Liège Airport","medium_airport","Grâce-Hollogne","BE","50.638574","5.443897"
"OST","EBOS","Ostend-Bruges International Airport","large_airport","Oostende","BE","51.1998","2.874673"
"HDF","EDAH","Heringsdorf Airport","medium_airport","Zirchow","DE","53.8787","14.1523"
"BER","EDDB","Berlin Brandenburg Airport","large_airport","Berlin","DE","52.361738","13.502341"
"DRS","EDDC","Dresden Airport","large_airport","Dresden","DE","51.134123","13.767831"
"ERF","EDDE","Erfurt-Weimar Airport","large_airport","Erfurt","DE","50.978281","10.960713"
"FRA","EDDF","Frankfurt Main Airport","large_airport","Frankfurt am Main","DE","50.026706","8.55835"
"FMO","EDDG","Münster Osnabrück Airport","large_airport","Greven","DE","52.133816","7.688482"
"HAM","EDDH","Hamburg Helmut Schmidt Airport","large_airport","Hamburg","DE","53.630402","9.98823"
"CGN","EDDK","Cologne Bonn Airport","large_airport","Köln (Cologne)","DE","50.865898","7.14274"
"DUS","EDDL","Düsseldorf Airport","large_airport","Düsseldorf","DE","51.289501","6.76678"
"MUC","EDDM","Munich Airport","large_airport","Munich","DE","48.353802","11.7861"
"NUE","EDDN","Nuremberg Airport","large_airport","Nuremberg","DE","49.498699","11.078056"
"LEJ","EDDP","Leipzig/Halle Airport","large_airport","Schkeuditz","DE","51.420657","12.232705"
"SCN","EDDR","Saarbrücken Airport","medium_airport","Saarbrücken","DE","49.214545","7.109735"
"STR","EDDS","Stuttgart Airport","large_airport","Stuttgart","DE","48.689899","9.22196"
"HAJ","EDDV","Hannover Airport","large_airport","Hannover","DE","52.461102","9.68508"
"BRE","EDDW","Bremen Airport","large_airport","Bremen","DE","53.046786","8.78932"
"HHN","EDFH","Frankfurt-Hahn Airport","large_airport","Frankfurt am Main (Lautzenhausen)","DE","49.946353","7.261734"
"MHG","EDFM","Mannheim-City Airport","medium_airport","Mannheim","DE","49.473057","8.514167"
"LBC","EDHL","Lübeck Blankensee Airport","medium_airport","Lübeck","DE","53.805401","10.7192"
"FMM","EDJA","Memmingen Allgau Airport","large_airport","Memmingen","DE","47.988092","10.238248"
"PAD","EDLP","Paderborn Lippstadt Airport","large_airport","Büren","DE","51.612527","8.617459"
"NRN","EDLV","Weeze (Niederrhein) Airport","large_airport","Weeze","DE","51.601362","6.141228"
"DTM","EDLW","Dortmund Airport","large_airport","Dortmund","DE","51.518299","7.61224"
"FDH","EDNY","Bodensee Airport Friedrichshafen","large_airport","Friedrichshafen","DE","47.671299","9.51149"
"FKB","EDSB","Karlsruhe Baden-Baden Airport","large_airport","Rheinmünster","DE","48.7794","8.0805"
"KSF","EDVK","Kassel Airport","large_airport","Calden","DE","51.418395","9.391638"
"GWT","EDXW","Westerland Sylt Airport","medium_airport","Sylt","DE","54.9132","8.34047"
"KDL","EEKA","Kärdla Airport","medium_airport","Kärdla","EE","58.99079895019531","22.830699920654297"
"URE","EEKE","Kuressaare Airport","medium_airport","Kuressaare","EE","58.22990036010742","22.50950050354004"
"EPU","EEPU","Pärnu Airport","medium_airport","Pärnu","EE","58.41899871826172","24.47279930114746"
"TLL","EETN","Lennart Meri Tallinn Airport","large_airport","Tallinn","EE","59.413246","24.83264"
"TAY","EETU","Tartu Airport","medium_airport","Tartu","EE","58.307438","26.686473"
"ENF","EFET","Enontekio Airport","medium_airport","Enontekio","FI","68.362602233887","23.424299240112"
"HEL","EFHK","Helsinki Vantaa Airport","large_airport","Helsinki (Vantaa)","FI","60.318363","24.963341"
"IVL","EFIV","Ivalo Airport","large_airport","Ivalo","FI","68.6073","27.4053"
"JOE","EFJO","Joensuu Airport","medium_airport","Joensuu","FI","62.658815","29.619398"
"JYV","EFJY","Jyväskylä Airport","medium_airport","Jyväskylän Maalaiskunta","FI","62.399502","25.678301"
"KEM","EFKE","Kemi-Tornio Airport","medium_airport","Kemi / Tornio","FI","65.778701782227","24.582099914551"
"KAJ","EFKI","Kajaani Airport","medium_airport","Kajaani","FI","64.2855","27.6924"
"KOK","EFKK","Kokkola-Pietarsaari Airport","medium_airport","Kokkola / Kruunupyy","FI","63.721199","23.143101"
"KAO","EFKS","Kuusamo Airport","medium_airport","Kuusamo","FI","65.987602","29.239401"
"KTT","EFKT","Kittilä International Airport","large_airport","Kittilä","FI","67.700996","24.8468"
"KUO","EFKU","Kuopio Airport","large_airport","Kuopio / Siilinjärvi","FI","63.007099","27.7978"
"LPP","EFLP","Lappeenranta Airport","large_airport","Lappeenranta","FI","61.044601","28.144743"
"MHQ","EFMA","Mariehamn Airport","large_airport","Mariehamn","FI","60.1222","19.898199"
"OUL","EFOU","Oulu Airport","large_airport","Oulu / Oulunsalo","FI","64.930099","25.354601"
"POR","EFPO","Pori Airport","medium_airport","Pori","FI","61.4617","21.799999"
"RVN","EFRO","Rovaniemi Airport","large_airport","Rovaniemi","FI","66.563327","25.829751"
"SVL","EFSA","Savonlinna Airport","medium_airport","Savonlinna","FI","61.9431","28.945101"
"TMP","EFTP","Tampere-Pirkkala Airport","large_airport","Tampere / Pirkkala","FI","61.414101","23.604401"
"TKU","EFTU","Turku Airport","large_airport","Turku","FI","60.514099","22.2628"
"VAA","EFVA","Vaasa Airport","large_airport","Vaasa","FI","63.05023","21.762543"
"BFS","EGAA","Belfast International Airport","large_airport","Belfast","GB","54.6575012207","-6.2158298492399995"
"BHD","EGAC","George Best Belfast City Airport","medium_airport","Belfast","GB","54.618099","-5.8725"
"LDY","EGAE","City of Derry Airport","medium_airport","Derry, Derry and Strabane","GB","55.042801","-7.16111"
"BHX","EGBB","Birmingham Airport","large_airport","Birmingham, West Midlands","GB","52.453899","-1.74803"
"MAN","EGCC","Manchester Airport","large_airport","Manchester, Greater Manchester","GB","53.349375","-2.279521"
"CAL","EGEC","Campbeltown Airport","medium_airport","Campbeltown","GB","55.437199","-5.68639"
"EOI","EGED","Eday Airport","medium_airport","Eday","GB","59.19060134887695","-2.7722198963165283"
"CWL","EGFF","Cardiff International Airport","large_airport","Cardiff","GB","51.396702","-3.34333"
"BRS","EGGD","Bristol Airport","large_airport","Bristol","GB","51.382326","-2.716453"
"LPL","EGGP","Liverpool John Lennon Airport","large_airport","Liverpool","GB","53.334863","-2.849637"
"LTN","EGGW","London Luton Airport","large_airport","Luton, Luton","GB","51.874699","-0.368333"
"BOH","EGHH","Bournemouth Airport","medium_airport","Bournemouth","GB","50.780483","-1.839576"
"SOU","EGHI","Southampton Airport","medium_airport","Southampton","GB","50.950298","-1.3568"
"NQY","EGHQ","Cornwall Airport Newquay","medium_airport","Newquay","GB","50.440601","-4.99541"
"ACI","EGJA","Alderney Airport","medium_airport","Saint Anne","GG","49.706104","-2.21472"
"GCI","EGJB","Guernsey Airport","medium_airport","Saint Peter Port","GG","49.435001","-2.60197"
"JER","EGJJ","Jersey Airport","medium_airport","St. Peter","JE","49.207901","-2.19551"
"LGW","EGKK","London Gatwick Airport","large_airport","London","GB","51.148744","-0.185739"
"LCY","EGLC","London City Airport","medium_airport","London","GB","51.505299","0.055278"
"LHR","EGLL","London Heathrow Airport","large_airport","London","GB","51.470748","-0.459909"
"SEN","EGMC","London Southend Airport","medium_airport","Southend-on-Sea, Essex","GB","51.570562","0.693627"
"HUY","EGNJ","Humberside Airport","medium_airport","Grimsby, Lincolnshire","GB","53.576152","-0.34954"
"LBA","EGNM","Leeds Bradford Airport","large_airport","Leeds, West Yorkshire","GB","53.865898","-1.66057"
"IOM","EGNS","Isle of Man Airport","large_airport","Castletown","IM","54.083081","-4.623871"
"NCL","EGNT","Newcastle International Airport","large_airport","Newcastle upon Tyne, Tyne and Wear","GB","55.037958","-1.689577"
"MME","EGNV","Teesside International Airport","medium_airport","Darlington, Durham","GB","54.509201","-1.42941"
"EMA","EGNX","East Midlands Airport","large_airport","Nottingham, Leicestershire","GB","52.8311","-1.32806"
"KOI","EGPA","Kirkwall Airport","medium_airport","Kirkwall, Orkney Islands","GB","58.957903","-2.905077"
"LSI","EGPB","Sumburgh Airport","medium_airport","Lerwick, Shetland","GB","59.878899","-1.29556"
"WIC","EGPC","Wick John O'Groats Airport","medium_airport","Wick","GB","58.4589","-3.09306"
"ABZ","EGPD","Aberdeen International Airport","large_airport","Aberdeen","GB","57.2019","-2.19778"
"INV","EGPE","Inverness Airport","medium_airport","Inverness","GB","57.5425","-4.0475"
"GLA","EGPF","Glasgow Airport","large_airport","Glasgow","GB","55.871899","-4.43306"
"EDI","EGPH","Edinburgh Airport","large_airport","Edinburgh","GB","55.950145","-3.372288"
"ILY","EGPI","Islay Airport","medium_airport","Isle of Islay, Argyll and Bute","GB","55.682708","-6.257525"
"PIK","EGPK","Glasgow Prestwick Airport","large_airport","Prestwick, South Ayrshire","GB","55.501499","-4.577182"
"BEB","EGPL","Benbecula Airport","medium_airport","Balivanich","GB","57.481098","-7.36278"
"DND","EGPN","Dundee Airport","medium_airport","Dundee","GB","56.452499","-3.02583"
"SYY","EGPO","Stornoway Airport","medium_airport","Stornoway, Western Isles","GB","58.215599","-6.33111"
"BRR","EGPR","Barra Airport","medium_airport","Eoligarry","GB","57.0228","-7.44306"
"TRE","EGPU","Tiree Airport","medium_airport","Balemartine, Argyll and Bute","GB","56.499199","-6.86917"
"NWI","EGSH","Norwich Airport","medium_airport","Norwich, Norfolk","GB","52.6758","1.28278"
"STN","EGSS","London Stansted Airport","large_airport","London, Essex","GB","51.884998","0.235"
"EXT","EGTE","Exeter International Airport","medium_airport","Exeter, Devon","GB","50.734261","-3.413984"
"MPN","EGYP","Mount Pleasant Airport / RAF Mount Pleasant","large_airport","Mount Pleasant","FK","-51.822642","-58.445777"
"AMS","EHAM","Amsterdam Airport Schiphol","large_airport","Amsterdam","NL","52.308601","4.76389"
"MST","EHBK","Maastricht Aachen Airport","large_airport","Maastricht","NL","50.911087","5.769401"
"EIN","EHEH","Eindhoven Airport","large_airport","Eindhoven","NL","51.4500999451","5.37452983856"
"GRQ","EHGG","Groningen Airport Eelde","large_airport","Groningen","NL","53.119107","6.577652"
"RTM","EHRD","Rotterdam The Hague Airport","large_airport","Rotterdam","NL","51.956902","4.43722"
"ORK","EICK","Cork International Airport","large_airport","Cork","IE","51.841301","-8.49111"
"CFN","EIDL","Donegal Airport","medium_airport","Donegal","IE","55.0442008972168","-8.340999603271484"
"DUB","EIDW","Dublin Airport","large_airport","Dublin","IE","53.428713","-6.262121"
"NOC","EIKN","Ireland West Airport Knock","large_airport","Charlestown","IE","53.910439","-8.817002"
"KIR","EIKY","Kerry Airport","medium_airport","Farranfore","IE","52.180901","-9.52378"
"SNN","EINN","Shannon Airport","large_airport","Shannon","IE","52.702","-8.92482"
"AAR","EKAH","Aarhus Airport","large_airport","Aarhus","DK","56.303331","10.618286"
"BLL","EKBI","Billund Airport","large_airport","Billund","DK","55.740335","9.157019"
"CPH","EKCH","Copenhagen Kastrup Airport","large_airport","Copenhagen","DK","55.617900848389","12.656000137329"
"EBJ","EKEB","Esbjerg Airport","medium_airport","Esbjerg","DK","55.525902","8.5534"
"KRP","EKKA","Midtjyllands Airport / Air Base Karup","medium_airport","Karup","DK","56.297139","9.104311"
"ODE","EKOD","Odense Hans Christian Andersen Airport","large_airport","Odense","DK","55.475307","10.327206"
"RKE","EKRK","Copenhagen Roskilde Airport","medium_airport","Roskilde","DK","55.585602","12.1314"
"RNN","EKRN","Bornholm Airport","medium_airport","Rønne","DK","55.063301","14.7596"
"SGD","EKSB","Sønderborg Airport","medium_airport","Sønderborg","DK","54.96440124511719","9.791729927062988"
"FAE","EKVG","Vágar Airport","large_airport","Vágar","FO","62.063256","-7.275782"
"AAL","EKYT","Aalborg Airport","large_airport","Aalborg","DK","57.094763","9.84993"
"LUX","ELLX","Luxembourg-Findel International Airport","large_airport","Luxembourg","LU","49.626845","6.212134"
"AES","ENAL","Ålesund Airport","large_airport","Ålesund","NO","62.560443","6.110845"
"ANX","ENAN","Andøya Airport, Andenes","medium_airport","Andenes","NO","69.295193","16.139379"
"ALF","ENAT","Alta Airport","medium_airport","Alta","NO","69.976097","23.3717"
"BNN","ENBN","Brønnøysund Airport, Brønnøy","medium_airport","Brønnøy","NO","65.461098","12.2175"
"BOO","ENBO","Bodø Airport","large_airport","Bodø","NO","67.269203","14.3653"
"BGO","ENBR","Bergen Airport, Flesland","large_airport","Bergen","NO","60.2934","5.21814"
"BJF","ENBS","Båtsfjord Airport","medium_airport","Båtsfjord","NO","70.60025","29.692612"
"BVG","ENBV","Berlevåg Airport","medium_airport","Berlevåg","NO","70.871517","29.034097"
"KRS","ENCN","Kristiansand Airport","large_airport","Kristiansand(Kjevik)","NO","58.204201","8.08537"
"BDU","ENDU","Bardufoss Airport","medium_airport","Målselv","NO","69.055801","18.5404"
"EVE","ENEV","Harstad/Narvik Airport","large_airport","Evenes","NO","68.491302","16.678101"
"FRO","ENFL","Florø Airport","medium_airport","Florø","NO","61.583599090576","5.0247201919556"
"OSL","ENGM","Oslo-Gardermoen International Airport","large_airport","Oslo (Gardermoen)","NO","60.193901","11.1004"
"HAU","ENHD","Haugesund Airport, Karmøy","medium_airport","Karmøy","NO","59.345299","5.20836"
"HFT","ENHF","Hammerfest Airport","medium_airport","Hammerfest","NO","70.679703","23.6686"
"HVG","ENHV","Honningsvåg Airport, Valan","medium_airport","Honningsvåg","NO","71.009697","25.983601"
"KSU","ENKB","Kristiansund Airport, Kvernberget","medium_airport","Kvernberget","NO","63.111801","7.82452"
"KKN","ENKR","Kirkenes Airport, Høybuktmoen","medium_airport","Kirkenes","NO","69.7258","29.8913"
"LKN","ENLK","Leknes Airport","medium_airport","Leknes","NO","68.152496337891","13.609399795532"
"MEH","ENMH","Mehamn Airport","medium_airport","Mehamn","NO","71.029701","27.8267"
"MOL","ENML","Molde Airport, Årø","medium_airport","Årø","NO","62.744701","7.2625"
"MJF","ENMS","Mosjøen Airport, Kjærstad","medium_airport","Mosjøen","NO","65.783997","13.2149"
"LKL","ENNA","Lakselv Airport, Banak","medium_airport","Lakselv","NO","70.068802","24.973499"
"OLA","ENOL","Ørland Airport","medium_airport","Ørland","NO","63.69889831542969","9.604000091552734"
"HOV","ENOV","Ørsta-Volda Airport, Hovden","medium_airport","Ørsta","NO","62.180000305176","6.0741000175476"
"MQN","ENRA","Mo i Rana Airport, Røssvoll","medium_airport","Mo i Rana","NO","66.363899230957","14.301400184631"
"RVK","ENRM","Rørvik Airport, Ryum","medium_airport","Rørvik","NO","64.838302612305","11.14610004425"
"RRS","ENRO","Røros Airport","medium_airport","Røros","NO","62.578399658203","11.342300415039"
"LYR","ENSB","Svalbard Airport, Longyear","medium_airport","Longyearbyen","NO","78.246101","15.4656"
"SVJ","ENSH","Svolvær Airport, Helle","medium_airport","Svolvær","NO","68.243301","14.6692"
"SKN","ENSK","Stokmarknes Airport, Skagen","medium_airport","Hadsel","NO","68.578827","15.033417"
"SRP","ENSO","Stord Airport, Sørstokken","medium_airport","Leirvik","NO","59.791901","5.34085"
"SOJ","ENSR","Sørkjosen Airport","medium_airport","Sørkjosen","NO","69.786797","20.9594"
"VAW","ENSS","Vardø Airport, Svartnes","medium_airport","Vardø","NO","70.3554","31.044901"
"SSJ","ENST","Sandnessjøen Airport, Stokka","medium_airport","Alstahaug","NO","65.956802","12.4689"
"TOS","ENTC","Tromsø Airport","large_airport","Tromsø","NO","69.683296","18.9189"
"TRF","ENTO","Sandefjord Airport, Torp","large_airport","Sandefjord(Torp)","NO","59.186699","10.2586"
"TRD","ENVA","Trondheim Airport, Værnes","large_airport","Trondheim","NO","63.457802","10.924"
"VDS","ENVD","Vadsø Airport","medium_airport","Vadsø","NO","70.0653","29.8447"
"SVG","ENZV","Stavanger Airport, Sola","large_airport","Stavanger","NO","58.876701","5.63778"
"BZG","EPBY","Ignacy Jan Paderewski Bydgoszcz Airport","medium_airport","Bydgoszcz","PL","53.096802","17.977699"
"GDN","EPGD","Gdańsk Lech Wałęsa Airport","large_airport","Gdańsk","PL","54.377602","18.4662"
"KRK","EPKK","Kraków John Paul II International Airport","large_airport","Balice","PL","50.077702","19.7848"
"KTW","EPKT","Katowice Wojciech Korfanty International Airport","large_airport","Katowice","PL","50.476015","19.080705"
"LUZ","EPLB","Lublin Airport","large_airport","Lublin","PL","51.240157","22.713461"
"LCJ","EPLL","Łódź Władysław Reymont Airport","large_airport","Łódź","PL","51.721901","19.3981"
"WMI","EPMO","Warsaw Modlin Airport","large_airport","Nowy Dwór Mazowiecki","PL","52.451099","20.6518"
"POZ","EPPO","Poznań-Ławica Airport","large_airport","Poznań","PL","52.421598","16.823359"
"RDO","EPRA","Warsaw Radom Airport","medium_airport","Radom","PL","51.38937","21.214742"
"RZE","EPRZ","Rzeszów-Jasionka Airport","large_airport","Jasionka","PL","50.109791","22.024155"
"SZZ","EPSC","Solidarity Szczecin–Goleniów Airport","large_airport","Szczecin(Glewice)","PL","53.584702","14.9022"
"SZY","EPSY","Olsztyn-Mazury Airport","medium_airport","Szymany","PL","53.481899","20.9377"
"WAW","EPWA","Warsaw Chopin Airport","large_airport","Warsaw","PL","52.165699","20.9671"
"WRO","EPWR","Copernicus Wrocław Airport","large_airport","Wrocław","PL","51.103719","16.882096"
"IEG","EPZG","Zielona Góra-Babimost Airport","medium_airport","Nowe Kramsko","PL","52.1385","15.7986"
"RNB","ESDF","Ronneby Airport","medium_airport","Ronneby","SE","56.266701","15.265"
"GOT","ESGG","Göteborg Landvetter Airport","large_airport","Göteborg","SE","57.6628","12.2798"
"JKG","ESGJ","Jönköping Airport","medium_airport","Jönköping","SE","57.757598876953125","14.068699836730957"
"THN","ESGT","Trollhättan-Vänersborg Airport","medium_airport","Trollhättan","SE","58.31809997558594","12.345000267028809"
"MXX","ESKM","Mora Airport","medium_airport","Mora","SE","60.957901","14.5114"
"NYO","ESKN","Stockholm Skavsta Airport","large_airport","Nyköping","SE","58.789656","16.911479"
"SCR","ESKS","Scandinavian Mountains Airport","large_airport","Malung-Sälen","SE","61.16508","12.83352"
"KLR","ESMQ","Kalmar Airport","medium_airport","Kalmar","SE","56.685501","16.2876"
"MMX","ESMS","Malmö Sturup Airport","large_airport","Malmö","SE","55.535564","13.376327"
"HAD","ESMT","Halmstad Airport","medium_airport","Halmstad","SE","56.69110107421875","12.820199966430664"
"VXO","ESMX","Växjö Kronoberg Airport","medium_airport","Växjö","SE","56.929100036621094","14.727999687194824"
"GEV","ESNG","Gällivare Airport","medium_airport","Gällivare","SE","67.13240051269531","20.814599990844727"
"KRF","ESNK","Kramfors-Sollefteå Höga Kusten Airport","medium_airport","Nyland","SE","63.048599","17.7689"
"LYC","ESNL","Lycksele Airport","medium_airport","Lycksele","SE","64.548302","18.7162"
"SDL","ESNN","Sundsvall-Härnösand Airport","medium_airport","Sundsvall/ Härnösand","SE","62.528099060058594","17.443899154663086"
"OER","ESNO","Örnsköldsvik Airport","medium_airport","Örnsköldsvik","SE","63.40829849243164","18.989999771118164"
"KRN","ESNQ","Kiruna Airport","large_airport","Kiruna","SE","67.821999","20.3368"
"SFT","ESNS","Skellefteå Airport","medium_airport","Skellefteå","SE","64.62480163574219","21.076900482177734"
"UME","ESNU","Umeå Airport","large_airport","Umeå","SE","63.791801","20.282801"
"VHM","ESNV","Vilhelmina South Lapland Airport","medium_airport","Vilhelmina","SE","64.579102","16.833599"
"AJR","ESNX","Arvidsjaur Airport","medium_airport","Arvidsjaur","SE","65.59030151367188","19.28190040588379"
"OSD","ESNZ","Åre Östersund Airport","medium_airport","Östersund","SE","63.193546","14.504168"
"ORB","ESOE","Örebro Airport","medium_airport","Örebro","SE","59.22370147705078","15.038000106811523"
"KSD","ESOK","Karlstad Airport","medium_airport","Karlstad","SE","59.444698","13.3374"
"VST","ESOW","Stockholm Västerås Airport","large_airport","Stockholm / Västerås","SE","59.589401","16.6336"
"LLA","ESPA","Luleå Airport","large_airport","Luleå","SE","65.5438","22.122"
"ARN","ESSA","Stockholm-Arlanda Airport","large_airport","Stockholm","SE","59.64849","17.928829"
"BMA","ESSB","Stockholm-Bromma Airport","medium_airport","Stockholm","SE","59.354401","17.9417"
"BLE","ESSD","Dala Airport","medium_airport","Borlange","SE","60.422001","15.5152"
"LPI","ESSL","Linköping City Airport","large_airport","Linköping","SE","58.404909","15.684499"
"NRK","ESSP","Norrköping Airport","medium_airport","Norrköping","SE","58.586299896240234","16.250600814819336"
"TYF","ESST","Torsby Airport","medium_airport","Torsby","SE","60.1576","12.9913"
"VBY","ESSV","Visby Airport","large_airport","Visby","SE","57.6628","18.346201"
"AGH","ESTA","Ängelholm-Helsingborg Airport","medium_airport","Ängelholm","SE","56.29610061645508","12.847100257873535"
"FCN","ETMN","Sea-Airport Cuxhaven/Nordholz / Nordholz Naval Airbase","medium_airport","Wurster Nordseeküste","DE","53.767689","8.659201"
"RLG","ETNL","Rostock-Laage Airport","medium_airport","Laage","DE","53.918201","12.2783"
"RIX","EVRA","Riga International Airport","large_airport","Riga","LV","56.920752","23.970711"
"KUN","EYKA","Kaunas International Airport","large_airport","Kaunas","LT","54.963965","24.08582"
"PLQ","EYPA","Palanga International Airport","large_airport","Palanga","LT","55.973202","21.093901"
"VNO","EYVI","Vilnius International Airport","large_airport","Vilnius","LT","54.634102","25.285801"
"BFN","FABL","Bram Fischer International Airport","large_airport","Bloemfontein","ZA","-29.092699","26.302401"
"CPT","FACT","Cape Town International Airport","large_airport","Cape Town","ZA","-33.97403","18.604333"
"ELS","FAEL","King Phalo Airport","large_airport","East London","ZA","-33.035599","27.825899"
"GRJ","FAGG","George Airport","large_airport","George","ZA","-34.0056","22.378902"
"HDS","FAHT","Eastgate Airport / Air Force Base Hoedspruit","medium_airport","Hoedspruit","ZA","-24.361864","31.052921"
"KIM","FAKM","Kimberley Airport","large_airport","Kimberley","ZA","-28.805401","24.764872"
"MQP","FAKN","Kruger Mpumalanga International Airport","large_airport","Mbombela","ZA","-25.383327","31.105325"
"HLA","FALA","Lanseria International Airport","large_airport","Johannesburg","ZA","-25.938964","27.926642"
"DUR","FALE","King Shaka International Airport","large_airport","Durban","ZA","-29.6144444444","31.1197222222"
"MGH","FAMG","Margate Airport","medium_airport","Margate","ZA","-30.8574008942","30.343000412"
"MBD","FAMM","Mmabatho International Airport","medium_airport","Mafeking","ZA","-25.798400878900004","25.548000335699996"
"MZQ","FAMU","Mkuze Airport","medium_airport","Mkuze","ZA","-27.626101","32.0443"
"JNB","FAOR","O.R. Tambo International Airport","large_airport","Johannesburg","ZA","-26.140081","28.246801"
"PLZ","FAPE","Chief Dawid Stuurman International Airport","large_airport","Gqeberha (Port Elizabeth)","ZA","-33.989715","25.617353"
"PHW","FAPH","Hendrik Van Eck Airport","medium_airport","Phalaborwa","ZA","-23.937200546299998","31.1553993225"
"PZB","FAPM","Pietermaritzburg Airport","medium_airport","Pietermaritzburg","ZA","-29.649000167799997","30.3987007141"
"PTG","FAPP","Polokwane International Airport","large_airport","Polokwane","ZA","-23.845269","29.458615"
"RCB","FARB","Richards Bay Airport","medium_airport","Richards Bay","ZA","-28.740999221800003","32.0920982361"
"SIS","FASS","Sishen Airport","medium_airport","Sishen","ZA","-27.6486","22.9993"
"SZK","FASZ","Skukuza Airport","medium_airport","Skukuza","ZA","-24.96085","31.588587"
"UTN","FAUP","Upington Airport","medium_airport","Upington","ZA","-28.400246","21.263592"
"UTT","FAUT","K. D. Matanzima Airport","medium_airport","Mthatha","ZA","-31.546363184900002","28.6733551025"
"FRW","FBFT","Phillip Gaonwe Matante International Airport","large_airport","Francistown","BW","-21.159183","27.468826"
"BBK","FBKE","Kasane International Airport","large_airport","Kasane","BW","-17.831653","25.166195"
"MUB","FBMN","Maun International Airport","large_airport","Maun","BW","-19.970491","23.431409"
"GBE","FBSK","Sir Seretse Khama International Airport","large_airport","Gaborone","BW","-24.555201","25.9182"
"BZV","FCBB","Maya-Maya International Airport","large_airport","Brazzaville","CG","-4.2517","15.253"
"PNR","FCPP","Antonio Agostinho-Neto International Airport","large_airport","Pointe Noire","CG","-4.81603","11.8866"
"SHO","FDSK","King Mswati III International Airport","large_airport","Mpaka","SZ","-26.358611","31.716944"
"BGF","FEFF","Bangui M'Poko International Airport","large_airport","Bangui","CF","4.39848","18.518801"
"BSG","FGBT","Bata International Airport","large_airport","Bata","GQ","1.90547","9.80568"
"GEM","FGMY","President Obiang Nguema International Airport","medium_airport","Mengomeyén","GQ","1.676437","11.024904"
"SSG","FGSL","Malabo International Airport","large_airport","Malabo","GQ","3.75527","8.70872"
"ASI","FHAW","RAF Ascension Island","medium_airport","Cat Hill","SH","-7.970179","-14.392744"
"HLE","FHSH","Saint Helena International Airport","medium_airport","Jamestown","SH","-15.958898","-5.646066"
"MRU","FIMP","Sir Seewoosagur Ramgoolam International Airport","large_airport","Plaine Magnien","MU","-20.430201","57.683601"
"RRG","FIMR","Sir Charles Gaetan Duval Airport","medium_airport","Port Mathurin","MU","-19.756696","63.359326"
"DLA","FKKD","Douala International Airport","large_airport","Douala","CM","4.00608","9.71948"
"MVR","FKKL","Salak Airport","medium_airport","Maroua","CM","10.451399803161621","14.257399559020996"
"NGE","FKKN","N'Gaoundéré Airport","medium_airport","N'Gaoundéré","CM","7.3570098876953125","13.559200286865234"
"GOU","FKKR","Garoua International Airport","large_airport","Garoua","CM","9.334785","13.372129"
"NSI","FKYS","Yaoundé Nsimalen International Airport","large_airport","Yaoundé","CM","3.72256","11.5533"
"LVI","FLLI","Harry Mwanga Nkumbula International Airport","large_airport","Livingstone","ZM","-17.821524","25.819642"
"LUN","FLLS","Kenneth Kaunda International Airport","large_airport","Lusaka","ZM","-15.330833","28.452722"
"MFU","FLMF","Mfuwe International Airport","large_airport","Mfuwe","ZM","-13.2589","31.9366"
"NLA","FLSK","Simon Mwansa Kapwepwe International Airport","large_airport","Ndola","ZM","-12.96513","28.515624"
"HAH","FMCH","Prince Said Ibrahim International Airport","large_airport","Moroni","KM","-11.5337","43.2719"
"AJN","FMCV","Ouani Airport","medium_airport","Ouani","KM","-12.131047","44.430044"
"DZA","FMCZ","Dzaoudzi Pamandzi International Airport","large_airport","Dzaoudzi","YT","-12.809319","45.281815"
"RUN","FMEE","Roland Garros Airport","large_airport","Sainte-Marie","RE","-20.890087","55.518894"
"ZSE","FMEP","Saint-Pierre Pierrefonds Airport","large_airport","Saint-Pierre","RE","-21.319362","55.422506"
"TNR","FMMI","Ivato International Airport","large_airport","Antananarivo","MG","-18.7969","47.478802"
"SMS","FMMS","Sainte Marie Airport","medium_airport","Vohilava","MG","-17.093901","49.8158"
"TMM","FMMT","Toamasina Ambalamanasy Airport","large_airport","Toamasina","MG","-18.113537","49.392262"
"MOQ","FMMV","Morondava Airport","medium_airport","Morondava","MG","-20.2847","44.3176"
"DIE","FMNA","Arrachart Airport","medium_airport","Antisiranana","MG","-12.3494","49.291698"
"MJN","FMNM","Amborovy Airport","large_airport","Mahajanga","MG","-15.666842","46.351233"
"NOS","FMNN","Nosy Be International Airport","large_airport","Nosy Be","MG","-13.3121","48.3148"
"BPY","FMNQ","Besalampy Airport","medium_airport","Besalampy","MG","-16.74453","44.482484"
"WMN","FMNR","Maroantsetra Airport","medium_airport","Maroantsetra","MG","-15.437742","49.689081"
"SVB","FMNS","Sambava Airport","medium_airport","Sambava","MG","-14.2786","50.174702"
"FTU","FMSD","Tôlanaro Airport","medium_airport","Tôlanaro","MG","-25.038099","46.9561"
"MNJ","FMSM","Mananjary Airport","medium_airport","Mananjary","MG","-21.201799","48.358299"
"TLE","FMST","Toliara Airport","medium_airport","Toliara","MG","-23.3834","43.7285"
"SSY","FNBC","Mbanza Congo Airport","medium_airport","Mbanza Congo","AO","-6.269899845123291","14.246999740600586"
"NBJ","FNBJ","Dr. Antonio Agostinho Neto International Airport","large_airport","Luanda (Ícolo e Bengo)","AO","-9.050734","13.499078"
"CAB","FNCA","Cabinda Airport","medium_airport","Cabinda","AO","-5.59839","12.188145"
"CBT","FNCT","Catumbela Airport","medium_airport","Catumbela","AO","-12.4792","13.4869"
"DUE","FNDU","Dundo Airport","medium_airport","Chitato","AO","-7.400889873504639","20.818500518798828"
"VPE","FNGI","Ngjiva Pereira Airport","medium_airport","Ngiva","AO","-17.0435009003","15.683799743700002"
"NOV","FNHU","Albano Machado Airport","medium_airport","Huambo","AO","-12.8089","15.7605"
"LAD","FNLU","Quatro de Fevereiro International Airport","large_airport","Luanda","AO","-8.85837","13.2312"
"MEG","FNMA","Malanje Airport","medium_airport","Malanje","AO","-9.525090217590332","16.312400817871094"
"SPP","FNME","Menongue Airport","medium_airport","Menongue","AO","-14.657600402832031","17.71980094909668"
"MSZ","FNMO","Welwitschia Mirabilis International Airport","medium_airport","Moçâmedes","AO","-15.2612","12.1468"
"GXG","FNNG","Negage Airport","medium_airport","Negage","AO","-7.754509925842285","15.287699699401855"
"SZA","FNSO","Soyo Airport","medium_airport","Soyo","AO","-6.141089916229248","12.371800422668457"
"SDD","FNUB","Lubango Mukanka International Airport","medium_airport","Lubango","AO","-14.924839","13.576653"
"OYE","FOGO","Oyem Airport","medium_airport","Oyem","GA","1.5431100130081177","11.581399917602539"
"POG","FOOG","Port Gentil International Airport","large_airport","Port Gentil","GA","-0.711739","8.75438"
"MKU","FOOK","Makokou Airport","medium_airport","Makokou","GA","0.5792109966278076","12.890899658203125"
"LBV","FOOL","Libreville Leon M'ba International Airport","large_airport","Libreville","GA","0.458951","9.41214"
"MVB","FOON","M'Vengue El Hadj Omar Bongo Ondimba International Airport","large_airport","Franceville","GA","-1.65616","13.438"
"PCP","FPPR","Principe Airport","medium_airport","São Tomé & Príncipe","ST","1.661155","7.411081"
"TMS","FPST","São Tomé International Airport","large_airport","São Tomé","ST","0.378175","6.71215"
"BEW","FQBR","Beira International Airport","large_airport","Beira","MZ","-19.7964","34.9076"
"VPY","FQCH","Chimoio Airport","medium_airport","Chimoio","MZ","-19.15130043029785","33.42900085449219"
"INH","FQIN","Inhambane Airport","medium_airport","Inhambane","MZ","-23.8764","35.408501"
"VXC","FQLC","Lichinga Airport","medium_airport","Lichinga","MZ","-13.274","35.2663"
"MPM","FQMA","Maputo Airport","large_airport","Maputo","MZ","-25.920799","32.572601"
"MNC","FQNC","Nacala International Airport","medium_airport","Nacala","MZ","-14.4882","40.7122"
"APL","FQNP","Nampula Airport","large_airport","Nampula","MZ","-15.1056","39.281799"
"POL","FQPB","Pemba Airport","medium_airport","Pemba","MZ","-12.993302","40.524867"
"UEL","FQQL","Quelimane Airport","medium_airport","Quelimane","MZ","-17.855499267578125","36.86909866333008"
"TET","FQTT","Tete Airport","large_airport","Tete","MZ","-16.104799","33.640202"
"VNX","FQVL","Vilankulo Airport","medium_airport","Vilanculo","MZ","-22.018400192260742","35.31330108642578"
"SEZ","FSIA","Seychelles International Airport","large_airport","Victoria","SC","-4.67434","55.521801"
"PRI","FSPP","Praslin Island Airport","medium_airport","Praslin Island","SC","-4.319256","55.691561"
"AEH","FTTC","Abeche Airport","medium_airport","Abeche","TD","13.847","20.844299"
"NDJ","FTTJ","N'Djamena International Airport","large_airport","N'Djamena","TD","12.1337","15.034"
"BUQ","FVBU","Joshua Mqabuko Nkomo International Airport","large_airport","Bulawayo","ZW","-20.016284","28.622897"
"VFA","FVFA","Victoria Falls International Airport","large_airport","Victoria Falls","ZW","-18.097437","25.836867"
"HRE","FVHA","Robert Gabriel Mugabe International Airport","large_airport","Harare","ZW","-17.931801","31.0928"
"KAB","FVKB","Kariba Airport","medium_airport","Kariba","ZW","-16.5198","28.885"
"BLZ","FWCL","Chileka International Airport","large_airport","Blantyre","MW","-15.677189","34.972319"
"LLW","FWKI","Kamuzu International Airport","large_airport","Lumbadzi","MW","-13.7894","33.780998"
"MSU","FXMM","Moshoeshoe I International Airport","large_airport","Maseru(Mazenod)","LS","-29.456277","27.554456"
"MPA","FYKM","Katima Mulilo Airport","medium_airport","Mpacha","NA","-17.634258","24.176688"
"LUD","FYLZ","Luderitz Airport","medium_airport","Luderitz","NA","-26.687400817871094","15.242899894714355"
"OND","FYOA","Ondangwa Airport","medium_airport","Ondangwa","NA","-17.878201","15.9526"
"OMD","FYOG","Oranjemund Airport","medium_airport","Oranjemund","NA","-28.585318","16.44638"
"NDU","FYRU","Rundu Airport","medium_airport","Rundu","NA","-17.956499","19.7194"
"WVB","FYWB","Walvis Bay International Airport","large_airport","Walvis Bay(Rooikop)","NA","-22.979332","14.647102"
"ERS","FYWE","Eros Airport","medium_airport","Windhoek","NA","-22.60492","17.079002"
"WDH","FYWH","Hosea Kutako International Airport","large_airport","Windhoek","NA","-22.4799","17.4709"
"FIH","FZAA","Ndjili International Airport","large_airport","Kinshasa","CD","-4.38575","15.4446"
"FDU","FZBO","Bandundu Airport","medium_airport","Bandundu","CD","-3.31132","17.381701"
"KKW","FZCA","Kikwit Airport","medium_airport","Kikwit","CD","-5.03577","18.785601"
"MDK","FZEA","Mbandaka Airport","medium_airport","Mbandaka","CD","0.0226000007242","18.2887001038"
"BDT","FZFD","Gbadolite Airport","medium_airport","Gbadolite","CD","4.252745","20.975271"
"GMA","FZFK","Gemena Airport","medium_airport","Gemena","CD","3.23537","19.771299"
"FKI","FZIC","Bangoka International Airport","large_airport","Kisangani","CD","0.481639","25.337999"
"IRP","FZJH","Matari Airport","medium_airport","Isiro","CD","2.82761","27.588301"
"BUX","FZKA","Bunia Airport","medium_airport","Bunia","CD","1.565743","30.220685"
"GOM","FZNA","Goma International Airport","large_airport","Goma","CD","-1.666758","29.238037"
"KND","FZOA","Kindu Airport","medium_airport","Kindu","CD","-2.91917991638","25.915399551399997"
"FBM","FZQA","Lubumbashi International Airport","large_airport","Lubumbashi","CD","-11.591494","27.530753"
"KWZ","FZQM","Kolwezi Airport","medium_airport","Kolwezi","CD","-10.7659","25.505699"
"FMI","FZRF","Kalemie Airport","medium_airport","Kalemie","CD","-5.87556","29.25"
"KGA","FZUA","Kananga Airport","medium_airport","Kananga","CD","-5.90005","22.4692"
"MJM","FZWA","Mbuji Mayi Airport","medium_airport","Mbuji Mayi","CD","-6.121240139010001","23.569000244099996"
"BKO","GABS","Modibo Keita International Airport","large_airport","Bamako","ML","12.5335","-7.94994"
"GAQ","GAGO","Gao International Airport","medium_airport","Gao","ML","16.248466","-0.005389"
"KYS","GAKY","Kayes Dag Dag Airport","medium_airport","Kayes","ML","14.482521","-11.399335"
"MZI","GAMB","Mopti Airport","medium_airport","Sévaré","ML","14.5128","-4.07956"
"TOM","GATB","Tombouktou Airport","large_airport","Timbuktu","ML","16.730499","-3.00758"
"BJL","GBYD","Banjul International Airport","large_airport","Banjul (Yundum)","GM","13.338","-16.652201"
"FUE","GCFV","Fuerteventura Airport","large_airport","El Matorral","ES","28.4527","-13.8638"
"VDE","GCHI","El Hierro Airport","medium_airport","El Hierro Island","ES","27.8148","-17.8871"
"SPC","GCLA","La Palma Airport","medium_airport","Sta Cruz de la Palma, La Palma Island","ES","28.626499","-17.7556"
"LPA","GCLP","Gran Canaria Airport","large_airport","Gran Canaria Island","ES","27.9319","-15.3866"
"ACE","GCRR","César Manrique-Lanzarote Airport","large_airport","San Bartolomé","ES","28.945499","-13.6052"
"TFS","GCTS","Tenerife Sur Airport","large_airport","Tenerife","ES","28.0445","-16.5725"
"TFN","GCXO","Tenerife Norte-Ciudad de La Laguna Airport","large_airport","Tenerife","ES","28.482752","-16.341707"
"MLN","GEML","Melilla Airport","medium_airport","Melilla","ES","35.2798","-2.95626"
"FNA","GFLL","Lungi International Airport","large_airport","Freetown (Lungi-Town)","SL","8.61644","-13.1955"
"OXB","GGOV","Osvaldo Vieira International Airport","large_airport","Bissau","GW","11.894262","-15.653596"
"JJU","GL-0012","Qaqortoq Airport","medium_airport","Qaqortoq","GL","60.76383","-46.065001"
"MLW","GLMR","Spriggs Payne Airport","medium_airport","Monrovia","LR","6.28906","-10.7587"
"ROB","GLRB","Roberts International Airport","large_airport","Monrovia","LR","6.23379","-10.3623"
"AGA","GMAD","Al Massira Airport","large_airport","Agadir (Temsia)","MA","30.322478","-9.412003"
"TTA","GMAT","Tan Tan Airport","medium_airport","Tan Tan","MA","28.447563","-11.161749"
"OZG","GMAZ","Zagora Airport","large_airport","Zagora","MA","30.265788","-5.860808"
"FEZ","GMFF","Fes Saïss International Airport","large_airport","Saïss","MA","33.927299","-4.97796"
"ERH","GMFK","Moulay Ali Cherif Airport","medium_airport","Errachidia","MA","31.9475002289","-4.39833021164"
"OUD","GMFO","Oujda Angads Airport","large_airport","Ahl Angad","MA","34.789558","-1.926041"
"SMW","GMMA","Smara Airport","medium_airport","Smara","EH","26.731987","-11.683655"
"BEM","GMMD","Beni Mellal Airport","large_airport","Oulad Yaich","MA","32.401895","-6.315905"
"RBA","GMME","Rabat-Salé Airport","large_airport","Rabat","MA","34.051498","-6.75152"
"VIL","GMMH","Dakhla Airport","large_airport","Dakhla","EH","23.7183","-15.932"
"ESU","GMMI","Essaouira-Mogador Airport","medium_airport","Essaouira","MA","31.397499","-9.68167"
"EUN","GMML","Laayoune Hassan I International Airport","large_airport","El Aaiún","EH","27.142467","-13.224947"
"CMN","GMMN","Mohammed V International Airport","large_airport","Casablanca","MA","33.3675","-7.58997"
"NDR","GMMW","Nador Al Aaroui International Airport","large_airport","Al Aaroui","MA","34.9888","-3.02821"
"RAK","GMMX","Marrakesh Menara Airport","large_airport","Marrakesh","MA","31.604807","-8.035788"
"OZZ","GMMZ","Ouarzazate International Airport","large_airport","Ouarzazate","MA","30.9391","-6.90943"
"TTU","GMTN","Sania Ramel Airport","large_airport","Tétouan","MA","35.594299","-5.32002"
"TNG","GMTT","Tangier Ibn Battuta Airport","large_airport","Tangier","MA","35.731741","-5.921459"
"DSS","GOBD","Blaise Diagne International Airport","large_airport","Dakar","SN","14.670878","-17.072829"
"ZIG","GOGG","Ziguinchor Airport","medium_airport","Ziguinchor","SN","12.55559","-16.283298"
"CSK","GOGS","Cap Skirring Airport","medium_airport","Cap Skirring","SN","12.39533","-16.748"
"DKR","GOOY","Léopold Sédar Senghor International Airport","large_airport","Dakar","SN","14.742337","-17.479222"
"NKC","GQNO","Nouakchott–Oumtounsy International Airport","large_airport","Nouakchott","MR","18.31","-15.969722"
"NDB","GQPP","Nouadhibou International Airport","large_airport","Nouadhibou","MR","20.932404","-17.030199"
"OUZ","GQPZ","Tazadit Airport","medium_airport","Zouérate","MR","22.757345","-12.482228"
"CKY","GUCY","Ahmed Sékou Touré International Airport","large_airport","Conakry","GN","9.57689","-13.612"
"SID","GVAC","Amílcar Cabral International Airport","large_airport","Espargos","CV","16.7414","-22.9494"
"BVC","GVBA","Aristides Pereira International Airport","large_airport","Rabil","CV","16.136499","-22.888901"
"MMO","GVMA","Maio Airport","medium_airport","Vila do Maio","CV","15.155900001525879","-23.213699340820312"
"RAI","GVNP","Nelson Mandela International Airport","large_airport","Praia","CV","14.941126","-23.484728"
"SNE","GVSN","Preguiça Airport","medium_airport","Preguiça","CV","16.588852","-24.284132"
"VXE","GVSV","Cesaria Evora International Airport","large_airport","São Pedro","CV","16.833363","-25.055308"
"ADD","HAAB","Addis Ababa Bole International Airport","large_airport","Addis Ababa","ET","8.97789","38.799301"
"AMH","HAAM","Arba Minch Airport","medium_airport","Arba Minch","ET","6.03939","37.5905"
"AXU","HAAX","Axum Airport","medium_airport","Axum","ET","14.1468","38.7728"
"BJR","HABD","Bahir Dar Airport","medium_airport","Bahir Dar","ET","11.6081","37.321602"
"DIR","HADR","Aba Tenna Dejazmach Yilma International Airport","large_airport","Dire Dawa","ET","9.623549","41.855027"
"GMB","HAGM","Gambela Airport","medium_airport","Gambela","ET","8.12876","34.563099"
"GDQ","HAGN","Gondar Airport","medium_airport","Azezo","ET","12.5199","37.433998"
"GDE","HAGO","Gode Airport","medium_airport","Gode","ET","5.93513011932","43.5786018372"
"JIJ","HAJJ","Gerad Wilwal International Airport","large_airport","Jijiga","ET","9.331907","42.911811"
"BCO","HAJK","Jinka Airport","medium_airport","Jinka","ET","5.749655","36.560165"
"JIM","HAJM","Jimma Airport","medium_airport","Jimma","ET","7.66609001159668","36.81660079956055"
"ABK","HAKD","Kebri Dahar Airport","medium_airport","Kebri Dahar","ET","6.732577","44.241339"
"AWA","HALA","Hawassa International Airport","large_airport","Hawassa","ET","7.100611","38.396455"
"MQX","HAMK","Mekele Alula Aba Nega Airport","medium_airport","Mekele","ET","13.4674","39.533501"
"ASO","HASO","Asosa Airport","medium_airport","Asosa","ET","10.018500328063965","34.586299896240234"
"BJM","HBBA","Bujumbura Melchior Ndadaye International Airport","large_airport","Bujumbura","BI","-3.32402","29.318501"
"GID","HBBE","Gitega Airport","medium_airport","Gitega","BI","-3.417209","29.911308"
"BSA","HCMF","Bender Qassim International Airport","large_airport","Bosaso","SO","11.275235","49.139231"
"HGA","HCMH","Egal International Airport","large_airport","Hargeisa","SO","9.514082","44.083469"
"BBO","HCMI","Berbera Airport","medium_airport","Berbera","SO","10.385035","44.936723"
"MGQ","HCMM","Aden Adde International Airport","large_airport","Mogadishu","SO","2.01444","45.304699"
"JIB","HDAM","Djibouti-Ambouli Airport","large_airport","Djibouti City","DJ","11.5473","43.1595"
"DBB","HEAL","El Alamein International Airport","large_airport","El Alamein","EG","30.924324","28.46161"
"AAC","HEAR","El Arish International Airport","large_airport","El Arish","EG","31.055324","33.827964"
"ATZ","HEAT","Asyut International Airport","large_airport","Asyut","EG","27.045962","31.01276"
"HBE","HEBA","Alexandria International Airport","large_airport","Alexandria","EG","30.93249","29.696437"
"ABS","HEBL","Abu Simbel Airport","medium_airport","Abu Simbel","EG","22.375924","31.611734"
"CAI","HECA","Cairo International Airport","large_airport","Cairo","EG","30.111534","31.396694"
"CCE","HECP","Capital International Airport","medium_airport","New Cairo","EG","30.06465","31.839974"
"HRG","HEGN","Hurghada International Airport","large_airport","Hurghada","EG","27.176776","33.796692"
"LXR","HELX","Luxor International Airport","large_airport","Luxor","EG","25.671018","32.706446"
"RMF","HEMA","Marsa Alam International Airport","large_airport","Marsa Alam","EG","25.555548","34.59245"
"MUH","HEMM","Mersa Matruh International Airport","large_airport","Marsa Matruh","EG","31.324313","27.22227"
"PSD","HEPS","Port Said International Airport","large_airport","Port Said","EG","31.279285","32.240582"
"HMB","HESG","Sohag International Airport","large_airport","Suhaj","EG","26.342515","31.743017"
"SSH","HESH","Sharm El Sheikh International Airport","large_airport","Sharm El Sheikh","EG","27.977272","34.394717"
"ASW","HESN","Aswan International Airport","large_airport","Aswan","EG","23.961075","32.820382"
"SPX","HESX","Sphinx International Airport","large_airport","Al Jiza","EG","30.108179","30.895728"
"TCP","HETB","Taba International Airport","medium_airport","Taba","EG","29.594496","34.775752"
"ASM","HHAS","Asmara International Airport","medium_airport","Asmara","ER","15.2919","38.910702"
"JUB","HJJJ","Juba International Airport","large_airport","Juba","SS","4.87201","31.601101"
"ASV","HKAM","Amboseli Airport","medium_airport","Ol Tukai","KE","-2.644786","37.252922"
"EDL","HKEL","Eldoret International Airport","large_airport","Eldoret","KE","0.404458","35.238899"
"NBO","HKJK","Jomo Kenyatta International Airport","large_airport","Nairobi","KE","-1.318886","36.928233"
"KIS","HKKI","Kisumu International Airport","large_airport","Kisumu","KE","-0.086139","34.728901"
"LAU","HKLU","Manda Airport","medium_airport","Lamu","KE","-2.252431","40.912892"
"MYD","HKML","Malindi International Airport","medium_airport","Malindi","KE","-3.22931","40.1017"
"MBA","HKMO","Moi International Airport","large_airport","Mombasa","KE","-4.03483","39.5942"
"MRE","HKMS","Mara Serena Lodge Airstrip","medium_airport","Serena","KE","-1.404588","35.008349"
"NYK","HKNL","Nanyuki Civil Airport","medium_airport","Gathiuru","KE","-0.062352","37.041296"
"WIL","HKNW","Nairobi Wilson Airport","medium_airport","Nairobi","KE","-1.32172","36.8148"
"WJR","HKWJ","Wajir Airport","medium_airport","Wajir","KE","1.73324","40.091599"
"GHT","HLGT","Ghat Airport","medium_airport","Ghat","LY","25.1455993652","10.142600059500001"
"AKF","HLKF","Kufra Airport","medium_airport","Kufra","LY","24.178699493408203","23.31399917602539"
"BEN","HLLB","Benina International Airport","large_airport","Benina","LY","32.096802","20.269501"
"MJI","HLLM","Mitiga International Airport","large_airport","Tripoli","LY","32.89177","13.287878"
"LAQ","HLLQ","Al Abraq International Airport","large_airport","Al Albraq","LY","32.789036","21.954864"
"SEB","HLLS","Sabha Airport","medium_airport","Sabha","LY","26.992452","14.466162"
"LTD","HLTD","Ghadames Airport","medium_airport","Ghadames","LY","30.145484","9.702095"
"KGL","HRYR","Kigali International Airport","large_airport","Kigali","RW","-1.96863","30.1395"
"KME","HRZA","Kamembe Airport","medium_airport","Kamembe","RW","-2.462239980697632","28.907899856567383"
"DOG","HSDN","Dongola Airport","medium_airport","Dongola","SD","19.153666","30.430069"
"ELF","HSFS","El Fasher Airport","medium_airport","El Fasher","SD","13.614899635314941","25.324600219726562"
"KSL","HSKA","Kassala Airport","medium_airport","Kassala","SD","15.387499809265137","36.328800201416016"
"UYL","HSNN","Nyala Airport","medium_airport","Nyala","SD","12.0535","24.9562"
"EBD","HSOB","El-Obeid Airport","medium_airport","El-Obeid","SD","13.1532","30.2327"
"PZU","HSPN","Port Sudan New International Airport","large_airport","Port Sudan","SD","19.434558","37.234125"
"KRT","HSSK","Khartoum International Airport","large_airport","Khartoum","SD","15.5895","32.5532"
"MAK","HSSM","Malakal International Airport","medium_airport","Malakal","SS","9.558739","31.651937"
"WUU","HSWW","Wau Airport","medium_airport","Wau","SS","7.72583","27.975"
"ARK","HTAR","Arusha Airport","medium_airport","Arusha","TZ","-3.3677899837493896","36.63330078125"
"DAR","HTDA","Julius Nyerere International Airport","large_airport","Dar es Salaam","TZ","-6.873499","39.207288"
"DOD","HTDO","Dodoma Airport","medium_airport","Dodoma","TZ","-6.170559","35.756036"
"MBI","HTGW","Songwe Airport","medium_airport","Mbeya","TZ","-8.919942","33.273981"
"JRO","HTKJ","Kilimanjaro International Airport","large_airport","Arusha","TZ","-3.427049","37.07353"
"MYW","HTMT","Mtwara Airport","medium_airport","Mtwara","TZ","-10.336204","40.181997"
"MWZ","HTMW","Mwanza International Airport","large_airport","Mwanza","TZ","-2.446563","32.936049"
"TGT","HTTG","Tanga Airport","medium_airport","Tanga","TZ","-5.09236","39.071201"
"ZNZ","HTZA","Abeid Amani Karume International Airport","large_airport","Zanzibar","TZ","-6.22202","39.224899"
"RUA","HUAR","Arua Airport","medium_airport","Arua","UG","3.049152","30.911714"
"EBB","HUEN","Entebbe International Airport","large_airport","Entebbe","UG","0.042386","32.443501"
"ULU","HUGU","Gulu Airport","medium_airport","Gulu","UG","2.8055601119995117","32.27180099487305"
"SRT","HUSO","Soroti Airport","medium_airport","Soroti","UG","1.7276899814605713","33.622798919677734"
"DHX","ID-0277","Dhoho International Airport","medium_airport","Kediri","ID","-7.749527","111.946831"
"UGU","ID-ZGP","Bilorai Airport","medium_airport","Bilogai","ID","-3.739503","137.031183"
"AYJ","IN-0025","Maharshi Valmiki International Airport","medium_airport","Faizabad","IN","26.747736","82.163664"
"SDW","IN-0107","Sindhudurg Airport","medium_airport","Chipi","IN","16.002552","73.529846"
"NMI","IN-0276","Navi Mumbai International Airport","large_airport","Navi Mumbai","IN","18.984597","73.065253"
"HGI","IN-0308","Itanagar Donyi Polo Hollongi Airport","medium_airport","Hollongi","IN","26.96683","93.638792"
"AHA","IN-0393","Maa Mahamaya Airport","medium_airport","Ambikapur","IN","22.98753","83.19612"
"BLD","K61B","Boulder City Municipal Airport","medium_airport","Boulder City","US","35.947161","-114.858799"
"ABE","KABE","Lehigh Valley International Airport","medium_airport","Allentown/Bethlehem","US","40.651773","-75.442797"
"ABI","KABI","Abilene Regional Airport","medium_airport","Abilene","US","32.4113006592","-99.68190002440001"
"ABQ","KABQ","Albuquerque International Sunport","large_airport","Albuquerque","US","35.039976","-106.608925"
"ABR","KABR","Aberdeen Regional Airport","medium_airport","Aberdeen","US","45.449100494384766","-98.42179870605469"
"ABY","KABY","Southwest Georgia Regional Airport","medium_airport","Albany","US","31.532946","-84.196215"
"ACK","KACK","Nantucket Memorial Airport","medium_airport","Nantucket","US","41.25310135","-70.06020355"
"ACT","KACT","Waco Regional Airport","medium_airport","Waco","US","31.611299514770508","-97.23049926757812"
"ACV","KACV","California Redwood Coast-Humboldt County Airport","medium_airport","Arcata/Eureka","US","40.978101","-124.109"
"ACY","KACY","Atlantic City International Airport","medium_airport","Atlantic City","US","39.456201","-74.577511"
"AEX","KAEX","Alexandria International Airport","medium_airport","Alexandria","US","31.325828","-92.546702"
"AGS","KAGS","Augusta Regional At Bush Field","medium_airport","Augusta","US","33.3699","-81.9645"
"AIA","KAIA","Alliance Municipal Airport","medium_airport","Alliance","US","42.052543","-102.803965"
"ALB","KALB","Albany International Airport","large_airport","Albany","US","42.748299","-73.801697"
"ALO","KALO","Waterloo Regional Airport","medium_airport","Waterloo","US","42.557098388671875","-92.40029907226562"
"ALS","KALS","San Luis Valley Regional Airport/Bergman Field","medium_airport","Alamosa","US","37.434898","-105.866997"
"ALW","KALW","Walla Walla Regional Airport","medium_airport","Walla Walla","US","46.09489822","-118.288002"
"AMA","KAMA","Rick Husband Amarillo International Airport","medium_airport","Amarillo","US","35.217857","-101.706444"
"AOO","KAOO","Altoona Blair County Airport","medium_airport","Altoona","US","40.296398","-78.32"
"APN","KAPN","Alpena County Regional Airport","medium_airport","Alpena","US","45.0780983","-83.56030273"
"ART","KART","Watertown International Airport","medium_airport","Watertown","US","43.991901","-76.021698"
"ASE","KASE","Aspen-Pitkin County Airport (Sardy Field)","medium_airport","Aspen","US","39.223202","-106.869003"
"ATL","KATL","Hartsfield Jackson Atlanta International Airport","large_airport","Atlanta","US","33.6367","-84.428101"
"ATW","KATW","Appleton International Airport","medium_airport","Appleton","US","44.258515","-88.519"
"ATY","KATY","Watertown Regional Airport","medium_airport","Watertown","US","44.91400146","-97.15470123"
"AUG","KAUG","Augusta State Airport","medium_airport","Augusta","US","44.320598602299995","-69.7973022461"
"AUS","KAUS","Austin Bergstrom International Airport","large_airport","Austin","US","30.197535","-97.662015"
"AVL","KAVL","Asheville Regional Airport","medium_airport","Asheville","US","35.435488","-82.541853"
"AVP","KAVP","Wilkes-Barre/Scranton International Airport","medium_airport","Wilkes-Barre/Scranton","US","41.337064","-75.724232"
"AZO","KAZO","Kalamazoo/Battle Creek International Airport","medium_airport","Kalamazoo","US","42.232105","-85.549637"
"BKG","KBBG","Branson Airport","medium_airport","Branson","US","36.532082","-93.200544"
"BDL","KBDL","Bradley International Airport","large_airport","Hartford","US","41.938555","-72.688016"
"BED","KBED","Laurence G Hanscom Field","medium_airport","Bedford","US","42.470001","-71.289001"
"BFD","KBFD","Bradford Regional Airport","medium_airport","Bradford","US","41.8031005859375","-78.64009857177734"
"BFF","KBFF","Western Neb. Rgnl/William B. Heilig Airport","medium_airport","Scottsbluff","US","41.87400055","-103.5960007"
"BFI","KBFI","King County International Airport - Boeing Field","medium_airport","Seattle","US","47.527042","-122.29995"
"BFL","KBFL","Meadows Field","medium_airport","Bakersfield","US","35.433601","-119.056999"
"BGM","KBGM","Greater Binghamton/Edwin A Link field","medium_airport","Binghamton","US","42.20869827","-75.97979736"
"BGR","KBGR","Bangor International Airport","medium_airport","Bangor","US","44.806364","-68.826668"
"BHB","KBHB","Hancock County-Bar Harbor Airport","medium_airport","Bar Harbor","US","44.45000076","-68.3615036"
"BHM","KBHM","Birmingham-Shuttlesworth International Airport","large_airport","Birmingham","US","33.562877","-86.750712"
"BIH","KBIH","Eastern Sierra Regional Airport","medium_airport","Bishop","US","37.3731","-118.363998"
"BIL","KBIL","Billings Logan International Airport","medium_airport","Billings","US","45.808932","-108.541242"
"BIS","KBIS","Bismarck Municipal Airport","medium_airport","Bismarck","US","46.772734","-100.746874"
"BJC","KBJC","Rocky Mountain Metropolitan Airport","medium_airport","Denver","US","39.908798","-105.116997"
"BKW","KBKW","Raleigh County Memorial Airport","medium_airport","Beaver","US","37.7873","-81.124199"
"BLI","KBLI","Bellingham International Airport","medium_airport","Bellingham","US","48.79280090332031","-122.53800201416016"
"BLV","KBLV","Scott AFB/Midamerica Airport","medium_airport","Belleville","US","38.5452","-89.835197"
"BMI","KBMI","Central Illinois Regional Airport at Bloomington-Normal","medium_airport","Bloomington/Normal","US","40.4771","-88.915901"
"BNA","KBNA","Nashville International Airport","large_airport","Nashville","US","36.1245","-86.6782"
"BOI","KBOI","Boise Air Terminal/Gowen Field","large_airport","Boise","US","43.5644","-116.223"
"BOS","KBOS","Boston Logan International Airport","large_airport","Boston","US","42.36197","-71.0079"
"BPT","KBPT","Jack Brooks Regional Airport","medium_airport","Beaumont/Port Arthur","US","29.9508","-94.020699"
"BQK","KBQK","Brunswick Golden Isles Airport","medium_airport","Brunswick","US","31.258801","-81.466499"
"BRD","KBRD","Brainerd Lakes Regional Airport","medium_airport","Brainerd","US","46.402861","-94.129727"
"BRL","KBRL","Southeast Iowa Regional Airport","medium_airport","Burlington","US","40.783199310302734","-91.12550354003906"
"BRO","KBRO","Brownsville South Padre Island International Airport","medium_airport","Brownsville","US","25.907238","-97.425235"
"BTM","KBTM","Bert Mooney Airport","medium_airport","Butte","US","45.95479965209961","-112.49700164794922"
"BTR","KBTR","Baton Rouge Metropolitan Airport","medium_airport","Baton Rouge","US","30.533199","-91.149597"
"BTV","KBTV","Patrick Leahy Burlington International Airport","medium_airport","Burlington","US","44.471901","-73.153297"
"BUF","KBUF","Buffalo Niagara International Airport","large_airport","Buffalo","US","42.940498","-78.732201"
"BUR","KBUR","Hollywood Burbank/Bob Hope Airport","large_airport","Burbank","US","34.202834","-118.35805"
"BWI","KBWI","Baltimore/Washington International Thurgood Marshall Airport","large_airport","Baltimore","US","39.1754","-76.668297"
"BZN","KBZN","Bozeman Yellowstone International Airport","medium_airport","Bozeman","US","45.778853","-111.153711"
"CAE","KCAE","Columbia Metropolitan Airport","medium_airport","Columbia","US","33.938172","-81.123022"
"CAK","KCAK","Akron Canton Regional Airport","medium_airport","Akron","US","40.916099548339844","-81.44219970703125"
"CCR","KCCR","Buchanan Field","medium_airport","Concord","US","37.9897","-122.056999"
"CDC","KCDC","Cedar City Regional Airport","medium_airport","Cedar City","US","37.70100021362305","-113.0989990234375"
"CDR","KCDR","Chadron Municipal Airport","medium_airport","Chadron","US","42.837601","-103.095001"
"CEC","KCEC","Jack Mc Namara Field Airport","medium_airport","Crescent City","US","41.778929","-124.236403"
"CEZ","KCEZ","Cortez Municipal Airport","medium_airport","Cortez","US","37.303001","-108.627998"
"CGI","KCGI","Cape Girardeau Regional Airport","medium_airport","Cape Girardeau","US","37.2253","-89.570801"
"CHA","KCHA","Chattanooga Metropolitan Airport (Lovell Field)","medium_airport","Chattanooga","US","35.035301","-85.203796"
"CHO","KCHO","Charlottesville Albemarle Airport","medium_airport","Charlottesville","US","38.13859939575195","-78.4529037475586"
"CHS","KCHS","Charleston International Airport","large_airport","Charleston","US","32.896159","-80.038151"
"CID","KCID","The Eastern Iowa Airport","medium_airport","Cedar Rapids","US","41.884701","-91.7108"
"CIU","KCIU","Chippewa County International Airport","medium_airport","Kincheloe","US","46.242038","-84.462082"
"CKB","KCKB","North Central West Virginia Airport","medium_airport","Bridgeport","US","39.2966","-80.228104"
"CLE","KCLE","Cleveland Hopkins International Airport","large_airport","Cleveland","US","41.411701","-81.8498"
"CLL","KCLL","Easterwood Field","medium_airport","College Station","US","30.5886","-96.3638"
"CLT","KCLT","Charlotte Douglas International Airport","large_airport","Charlotte","US","35.2140007019043","-80.94309997558594"
"CMH","KCMH","John Glenn Columbus International Airport","large_airport","Columbus","US","39.998001","-82.891899"
"CMI","KCMI","University of Illinois Willard Airport","medium_airport","Savoy","US","40.039819","-88.276249"
"CMX","KCMX","Houghton County Memorial Airport","medium_airport","Hancock","US","47.168399810791016","-88.48909759521484"
"CNM","KCNM","Cavern City Air Terminal","medium_airport","Carlsbad","US","32.337501525878906","-104.26300048828125"
"CNY","KCNY","Canyonlands Regional Airport","medium_airport","Moab","US","38.755001","-109.754997"
"COD","KCOD","Yellowstone Regional Airport","medium_airport","Cody","US","44.520199","-109.024002"
"COS","KCOS","City of Colorado Springs Municipal Airport","large_airport","Colorado Springs","US","38.805801","-104.700996"
"COU","KCOU","Columbia Regional Airport","medium_airport","Columbia","US","38.8181","-92.219597"
"CPR","KCPR","Casper-Natrona County International Airport","medium_airport","Casper","US","42.907381","-106.461609"
"CRP","KCRP","Corpus Christi International Airport","medium_airport","Corpus Christi","US","27.770399","-97.501198"
"CLD","KCRQ","McClellan-Palomar Airport","medium_airport","Carlsbad","US","33.1283","-117.279999"
"CRW","KCRW","Yeager Airport","medium_airport","Charleston","US","38.3731","-81.593201"
"CSG","KCSG","Columbus Airport","medium_airport","Columbus","US","32.516415","-84.939602"
"CVG","KCVG","Cincinnati Northern Kentucky International Airport","large_airport","Cincinnati / Covington","US","39.048801","-84.667801"
"CVN","KCVN","Clovis Municipal Airport","medium_airport","Clovis","US","34.426594","-103.078794"
"CWA","KCWA","Central Wisconsin Airport","medium_airport","Mosinee","US","44.777448","-89.670238"
"CYS","KCYS","Cheyenne Regional Jerry Olson Field","medium_airport","Cheyenne","US","41.155701","-104.811997"
"DAB","KDAB","Daytona Beach International Airport","medium_airport","Daytona Beach","US","29.18255","-81.059464"
"DAL","KDAL","Dallas Love Field","large_airport","Dallas","US","32.844776","-96.847653"
"DAY","KDAY","James M. Cox Dayton International Airport","medium_airport","Dayton","US","39.902401","-84.219398"
"DBQ","KDBQ","Dubuque Regional Airport","medium_airport","Dubuque","US","42.402","-90.709503"
"DCA","KDCA","Ronald Reagan Washington National Airport","large_airport","Washington","US","38.8521","-77.037697"
"DDC","KDDC","Dodge City Regional Airport","medium_airport","Dodge City","US","37.76340103149414","-99.9655990600586"
"DEC","KDEC","Decatur Airport","medium_airport","Decatur","US","39.834598541259766","-88.8656997680664"
"DEN","KDEN","Denver International Airport","large_airport","Denver","US","39.860027","-104.673792"
"DFW","KDFW","Dallas Fort Worth International Airport","large_airport","Dallas-Fort Worth","US","32.896801","-97.038002"
"DHN","KDHN","Dothan Regional Airport","medium_airport","Dothan","US","31.321300506591797","-85.44960021972656"
"DIK","KDIK","Dickinson Theodore Roosevelt Regional Airport","medium_airport","Dickinson","US","46.797533","-102.801905"
"DLH","KDLH","Duluth International Airport","medium_airport","Duluth","US","46.841873","-92.198746"
"DOV","KDOV","Dover Civil Air Terminal/Dover Air Force Base","medium_airport","Dover","US","39.129501","-75.466003"
"DRO","KDRO","Durango La Plata County Airport","medium_airport","Durango","US","37.151501","-107.753998"
"DSM","KDSM","Des Moines International Airport","large_airport","Des Moines","US","41.534027","-93.656719"
"DSI","KDTS","Destin Executive Airport","medium_airport","Destin","US","30.400101","-86.471497"
"DTW","KDTW","Detroit Metropolitan Wayne County Airport","large_airport","Detroit","US","42.21377","-83.353786"
"DUJ","KDUJ","DuBois Regional Airport","medium_airport","Dubois","US","41.17829895","-78.8986969"
"DVL","KDVL","Devils Lake Regional Airport","medium_airport","Devils Lake","US","48.115454","-98.908796"
"EAR","KEAR","Kearney Regional Airport","medium_airport","Kearney","US","40.727001","-99.006798"
"EAT","KEAT","Pangborn Memorial Airport","medium_airport","Wenatchee","US","47.398899","-120.207001"
"EAU","KEAU","Chippewa Valley Regional Airport","medium_airport","Eau Claire","US","44.86579895019531","-91.48429870605469"
"ECP","KECP","Northwest Florida Beaches International Airport","medium_airport","Panama City Beach","US","30.357106","-85.795414"
"EGE","KEGE","Eagle County Regional Airport","medium_airport","Eagle","US","39.64260101","-106.9179993"
"EKO","KEKO","Elko Regional Airport","medium_airport","Elko","US","40.82490158081055","-115.79199981689453"
"ELD","KELD","South Arkansas Regional Airport at Goodwin Field","medium_airport","El Dorado","US","33.221001","-92.813301"
"ELM","KELM","Elmira Corning Regional Airport","medium_airport","Elmira/Corning","US","42.1599006652832","-76.8916015625"
"ELP","KELP","El Paso International Airport","large_airport","El Paso","US","31.809908","-106.375607"
"ERI","KERI","Erie International Tom Ridge Field","medium_airport","Erie","US","42.083127","-80.173867"
"ESC","KESC","Delta County Airport","medium_airport","Escanaba","US","45.723199","-87.088623"
"EUG","KEUG","Eugene Airport","medium_airport","Eugene","US","44.124599","-123.211998"
"EVV","KEVV","Evansville Regional Airport","medium_airport","Evansville","US","38.0369987488","-87.5324020386"
"EWB","KEWB","New Bedford Regional Airport","medium_airport","New Bedford","US","41.67610168457031","-70.95690155029297"
"EWN","KEWN","Coastal Carolina Regional Airport","medium_airport","New Bern","US","35.0730018616","-77.04290008539999"
"EWR","KEWR","Newark Liberty International Airport","large_airport","Newark","US","40.6894","-74.170545"
"EYW","KEYW","Key West International Airport","medium_airport","Key West","US","24.556119","-81.759579"
"FAR","KFAR","Hector International Airport","medium_airport","Fargo","US","46.9207","-96.815804"
"FAT","KFAT","Fresno Yosemite International Airport","large_airport","Fresno","US","36.775767","-119.718018"
"FAY","KFAY","Fayetteville Regional Airport - Grannis Field","medium_airport","Fayetteville","US","34.991199","-78.880302"
"FRD","KFHR","Friday Harbor Airport","medium_airport","Friday Harbor","US","48.523654","-123.024645"
"FLG","KFLG","Flagstaff Pulliam Airport","medium_airport","Flagstaff","US","35.139757","-111.669826"
"FLL","KFLL","Fort Lauderdale Hollywood International Airport","large_airport","Fort Lauderdale","US","26.072599","-80.152702"
"FLO","KFLO","Florence Regional Airport","medium_airport","Florence","US","34.18539810180664","-79.7238998413086"
"FNT","KFNT","Bishop International Airport","medium_airport","Flint","US","42.969294","-83.743355"
"FOD","KFOD","Fort Dodge Regional Airport","medium_airport","Fort Dodge","US","42.552624","-94.191237"
"FSD","KFSD","Sioux Falls Regional Airport","medium_airport","Sioux Falls","US","43.585463","-96.741152"
"FSM","KFSM","Fort Smith Regional Airport","medium_airport","Fort Smith","US","35.336601","-94.367401"
"FTW","KFTW","Fort Worth Meacham International Airport","medium_airport","Fort Worth","US","32.819919","-97.360818"
"FWA","KFWA","Fort Wayne International Airport","medium_airport","Fort Wayne","US","40.978896","-85.194465"
"GCC","KGCC","Northeast Wyoming Regional Airport","medium_airport","Gillette","US","44.3489","-105.539001"
"GCK","KGCK","Garden City Regional Airport","medium_airport","Garden City","US","37.9275016785","-100.723999023"
"GCN","KGCN","Grand Canyon National Park Airport","medium_airport","Grand Canyon - Tusayan","US","35.9524","-112.147003"
"GDV","KGDV","Dawson Community Airport","medium_airport","Glendive","US","47.137658","-104.80691"
"GEG","KGEG","Spokane International Airport","large_airport","Spokane","US","47.6199","-117.533997"
"GFK","KGFK","Grand Forks International Airport","medium_airport","Grand Forks","US","47.949299","-97.176102"
"GGG","KGGG","East Texas Regional Airport","medium_airport","Longview","US","32.38399887084961","-94.71150207519531"
"GGW","KGGW","Glasgow Valley County Airport Wokal Field","medium_airport","Glasgow","US","48.212502","-106.614998"
"GJT","KGJT","Grand Junction Regional Airport","medium_airport","Grand Junction","US","39.126663","-108.529387"
"GLH","KGLH","Mid Delta Regional Airport","medium_airport","Greenville","US","33.482899","-90.985603"
"GNV","KGNV","Gainesville Regional Airport","medium_airport","Gainesville","US","29.6900997162","-82.2717971802"
"FCA","KGPI","Glacier Park International Airport","medium_airport","Kalispell","US","48.310501","-114.255997"
"GPT","KGPT","Gulfport Biloxi International Airport","medium_airport","Gulfport","US","30.405582","-89.069836"
"GRB","KGRB","Austin Straubel International Airport","medium_airport","Green Bay","US","44.483459","-88.130805"
"GRI","KGRI","Central Nebraska Regional Airport","medium_airport","Grand Island","US","40.967498779296875","-98.30960083007812"
"GRK","KGRK","Killeen Regional Airport / Robert Gray Army Airfield","medium_airport","Fort Cavazos","US","31.0672","-97.828903"
"GRR","KGRR","Gerald R. Ford International Airport","large_airport","Grand Rapids","US","42.880798","-85.522797"
"GSO","KGSO","Piedmont Triad International Airport","large_airport","Greensboro","US","36.09937","-79.937262"
"GSP","KGSP","Greenville-Spartanburg International Airport","medium_airport","Greenville/Greer/Spartanburg","US","34.895699","-82.218903"
"GTF","KGTF","Great Falls International Airport","medium_airport","Great Falls","US","47.481998","-111.371002"
"GTR","KGTR","Golden Triangle Regional Airport","medium_airport","Columbus/W Point/Starkville","US","33.450298","-88.5914"
"GUC","KGUC","Gunnison Crested Butte Regional Airport","medium_airport","Gunnison","US","38.534672","-106.934566"
"GUP","KGUP","Gallup Municipal Airport","medium_airport","Gallup","US","35.511653","-108.788166"
"GYY","KGYY","Gary/Chicago International Airport","medium_airport","Gary","US","41.617087","-87.413206"
"DSY","KH-0001","Dara Sakor International Airport","large_airport","Ta Noun","KH","10.914244","103.226652"
"KTI","KH-0002","Techo International Airport","large_airport","Phnom Penh (Boeng Khyang)","KH","11.359987","104.921272"
"HDN","KHDN","Yampa Valley Airport","medium_airport","Hayden","US","40.481201","-107.218002"
"HGR","KHGR","Hagerstown Regional Richard A Henson Field","medium_airport","Hagerstown","US","39.708771","-77.728014"
"HHR","KHHR","Jack Northrop Field Hawthorne Municipal Airport","medium_airport","Hawthorne","US","33.922798","-118.334999"
"HIB","KHIB","Range Regional Airport","medium_airport","Hibbing","US","47.384831","-92.836905"
"HII","KHII","Lake Havasu City Airport","medium_airport","Lake Havasu City","US","34.570506","-114.357745"
"HLN","KHLN","Helena Regional Airport","medium_airport","Helena","US","46.6068","-111.983002"
"HOB","KHOB","Lea County Regional Airport","medium_airport","Hobbs","US","32.6875","-103.217003"
"HOT","KHOT","Memorial Field Airport","medium_airport","Hot Springs","US","34.4788","-93.096262"
"HOU","KHOU","William P. Hobby Airport","large_airport","Houston","US","29.645336","-95.276812"
"HPN","KHPN","Westchester County Airport","medium_airport","White Plains","US","41.06700134277344","-73.70760345458984"
"HRL","KHRL","Valley International Airport","medium_airport","Harlingen","US","26.228500366210938","-97.65440368652344"
"HRO","KHRO","Boone County Airport","medium_airport","Harrison","US","36.26150131225586","-93.15470123291016"
"HSV","KHSV","Huntsville International Airport","medium_airport","Huntsville","US","34.636244","-86.774378"
"HTS","KHTS","Tri-State Airport / Milton J. Ferguson Field","medium_airport","Huntington","US","38.366699","-82.557999"
"HVN","KHVN","Tweed New Haven Airport","medium_airport","New Haven","US","41.262869","-72.887694"
"HVR","KHVR","Havre City County Airport","medium_airport","Havre","US","48.541387","-109.762859"
"HHH","KHXD","Hilton Head Airport","medium_airport","Hilton Head Island","US","32.2244","-80.697502"
"HYA","KHYA","Cape Cod Gateway Airport","medium_airport","Hyannis","US","41.6693","-70.280403"
"HYS","KHYS","Hays Regional Airport","medium_airport","Hays","US","38.844521","-99.273148"
"IAD","KIAD","Washington Dulles International Airport","large_airport","Dulles","US","38.9445","-77.455803"
"IAG","KIAG","Niagara Falls International Airport","medium_airport","Niagara Falls","US","43.1073","-78.946198"
"IAH","KIAH","George Bush Intercontinental Airport","large_airport","Houston","US","29.9844","-95.3414"
"ICT","KICT","Wichita Dwight D. Eisenhower National Airport","medium_airport","Wichita","US","37.650314","-97.428583"
"IDA","KIDA","Idaho Falls Regional Airport","medium_airport","Idaho Falls","US","43.514599","-112.070999"
"ILG","KILG","Wilmington Airport","medium_airport","Wilmington","US","39.678699","-75.606499"
"ILM","KILM","Wilmington International Airport","medium_airport","Wilmington","US","34.272345","-77.905117"
"IMT","KIMT","Ford Airport","medium_airport","Kingsford","US","45.81911","-88.114557"
"IND","KIND","Indianapolis International Airport","large_airport","Indianapolis","US","39.7173","-86.294403"
"INL","KINL","Falls International Airport","medium_airport","International Falls","US","48.566200256347656","-93.4030990600586"
"IPL","KIPL","Imperial County Airport","medium_airport","Imperial","US","32.83539","-115.574026"
"IPT","KIPT","Williamsport Regional Airport","medium_airport","Williamsport","US","41.242126","-76.92245"
"IRK","KIRK","Kirksville Regional Airport","medium_airport","Kirksville","US","40.09349822998047","-92.5448989868164"
"ISP","KISP","Long Island MacArthur Airport","medium_airport","Islip","US","40.796324","-73.101703"
"ITH","KITH","Ithaca Tompkins Regional Airport","medium_airport","Ithaca","US","42.49100112915039","-76.4583969116211"
"AZA","KIWA","Mesa Gateway Airport","medium_airport","Mesa","US","33.3078","-111.654999"
"JAC","KJAC","Jackson Hole Airport","medium_airport","Jackson","US","43.6073","-110.737999"
"JAN","KJAN","Jackson-Medgar Wiley Evers International Airport","medium_airport","Jackson","US","32.311199","-90.075897"
"JAX","KJAX","Jacksonville International Airport","large_airport","Jacksonville","US","30.492469","-81.687813"
"JBR","KJBR","Jonesboro Municipal Airport","medium_airport","Jonesboro","US","35.83169937133789","-90.64640045166016"
"JFK","KJFK","John F. Kennedy International Airport","large_airport","New York","US","40.639447","-73.779317"
"JLN","KJLN","Joplin Regional Airport","medium_airport","Joplin","US","37.151798","-94.498299"
